bfs_number,rooms,area,price,postalcode,address,town,description_raw,bfs_name,pop,pop_dens,frg_pct,emp,tax_income,lat,lon,x,y
261,4.5,148,4180,8050,"Schaffhauserstrasse 363, 8050 Zürich", Zürich,««Renovierte 4.5-Zimmerwohnung an zentraler Lage»»,Zürich,420217,4778.9946548391,32.4584678868,491193.0,85446,47.41106796264648,8.546546936035156,251729.25,683615.375
261,2.0,122,3190,8050,"Max Bill Platz 5, 8050 Zürich", Zürich,«Modernes Wohnen im Zentrum von Oerlikon»,Zürich,420217,4778.9946548391,32.4584678868,491193.0,85446,47.41380310058594,8.539403915405273,252026.109375,683072.0
261,3.5,78,2780,8050,"Regensbergstrasse 30, 8050 Zürich", Zürich,«Wohnen am Puls von Zürich»,Zürich,420217,4778.9946548391,32.4584678868,491193.0,85446,47.404903411865234,8.554218292236328,251052.390625,684204.0625
261,3.5,69,3750,8050,"Dörflistrasse 112, 8050 Zürich", Zürich,"«Trendy Oerlikon 3.5 Room w/ Balcony, 1min to Train Station, by Bluegro»",Zürich,420217,4778.9946548391,32.4584678868,491193.0,85446,47.41082382202149,8.547832489013672,251703.875,683712.75
261,3.5,74,2390,8050,"Schaffhauserstrasse 445, 8050 Zürich", Zürich,«Helle und zentrale Wohnung in Zürich-Oerlikon»,Zürich,420217,4778.9946548391,32.4584678868,491193.0,85446,47.41709518432617,8.544919967651367,252397.609375,683483.125
261,4.5,98,3800,8050,"Eggbühlstrasse 9, 8050 Zürich", Zürich,«An bester Wohnlage in Zürich-Oerlikon»,Zürich,420217,4778.9946548391,32.4584678868,491193.0,85446,47.41616439819336,8.544422149658203,252293.859375,683447.0
261,2.5,60,2460,8050,"Leutschenbachstrasse 46, 8050 Zürich", Zürich,"«Schicke Oerlikon 2.5ZW mit Keller und W/T, nah Markt, über Blueground»",Zürich,420217,4778.9946548391,32.4584678868,491193.0,85446,47.415992736816406,8.555052757263184,252286.203125,684249.4375
261,2.5,64,2640,8050,"Siewerdtstrasse 19, 8050 Zürich", Zürich,«Erstvermietung - Stilvoll wohnen im Herzen von Oerlikon!!»,Zürich,420217,4778.9946548391,32.4584678868,491193.0,85446,47.412330627441406,8.549160957336426,251872.484375,683810.625
261,3.5,92,4210,8050,"Siewerdtstrasse 19, 8050 Zürich", Zürich,«Attikawohnung Erstvermietung - Stilvoll wohnen im Herzen von Oerlikon»,Zürich,420217,4778.9946548391,32.4584678868,491193.0,85446,47.412330627441406,8.549160957336426,251872.484375,683810.625
261,3.5,85,3130,8050,"Siewerdtstrasse 19, 8050 Zürich", Zürich,«Erstvermietung - Stilvoll wohnen im Herzen von Oerlikon!!»,Zürich,420217,4778.9946548391,32.4584678868,491193.0,85446,47.412330627441406,8.549160957336426,251872.484375,683810.625
261,3.5,72,1870,8050,"Schwamendingenstr. 77, 8050 Zürich", Zürich,«Städtisches Ambiente und ein reiches kulturelles Angebot»,Zürich,420217,4778.9946548391,32.4584678868,491193.0,85446,47.40586853027344,8.55467414855957,251160.125,684236.875
261,2.5,66,2760,8050,"Dörflistrasse 115, 8050 Zürich", Zürich,«Herzlich willkommen in Oerlikon!»,Zürich,420217,4778.9946548391,32.4584678868,491193.0,85446,47.4107780456543,8.547224044799805,251698.109375,683666.875
261,3.5,105,2690,8050,"Binzmühlestrasse 101, 8050 Zürich", Zürich,"«Moderne 3.5 - Zimmerwohnung im Parkside, Neu Oerlikon»",Zürich,420217,4778.9946548391,32.4584678868,491193.0,85446,47.41324996948242,8.539348602294922,251964.46875,683068.6875
261,3.0,79,2986,8050,8050 Zürich, Zürich,«New 3 room apartment in Oerlikon»,Zürich,420217,4778.9946548391,32.4584678868,491193.0,85446,47.41262435913086,8.53308391571045,251888.25,682596.9375
261,3.5,81,2383,8050,"Greifenseestr. 53, 8050 Zürich", Zürich,«Hier endet Ihre Wohnungssuche»,Zürich,420217,4778.9946548391,32.4584678868,491193.0,85446,47.409202575683594,8.557767868041992,251533.890625,684465.125
261,1.0,22,1336,8050,"Herbstweg 5, 8050 Zürich", Zürich,«Zentrale 1-Zimmerwohnung an ruhiger Lage»,Zürich,420217,4778.9946548391,32.4584678868,491193.0,85446,47.40534591674805,8.556075096130371,251103.421875,684343.4375
261,1.0,15,1234,8050,"Schwamendingenstrasse 93, 8050 Zürich", Zürich,«Sanierte 1-Zimmerwohnung im schönen Kreis 11»,Zürich,420217,4778.9946548391,32.4584678868,491193.0,85446,47.4051513671875,8.555936813354492,251081.8125,684333.3125
261,1.0,15,1311,8050,"Schwamendingenstrasse 93, 8050 Zürich", Zürich,«Sanierte 1-Zimmerwohnung im schönen Kreis 11»,Zürich,420217,4778.9946548391,32.4584678868,491193.0,85446,47.4051513671875,8.555936813354492,251081.8125,684333.3125
261,3.0,70,3051,8050,"Schwamendingenstrasse 93, 8050 Zürich", Zürich,«Charmante Wohnung in Zürich-Oerlikon»,Zürich,420217,4778.9946548391,32.4584678868,491193.0,85446,47.4051513671875,8.555936813354492,251081.8125,684333.3125
261,2.5,59,2320,8050,"Leutschenbachstrasse 40, 8050 Zürich", Zürich,«Attraktive 2.5-Zimmer-Wohnung»,Zürich,420217,4778.9946548391,32.4584678868,491193.0,85446,47.41581344604492,8.554472923278809,252265.703125,684206.0
261,1.5,24,1960,8050,"Hagenholzstrasse 59, 8050 Zürich", Zürich,«City Pop - Your flexible solution for long and short stays!»,Zürich,420217,4778.9946548391,32.4584678868,491193.0,85446,47.41465759277344,8.555407524108887,252138.140625,684278.3125
261,1.5,35,1620,8048,"Bernerstrasse Süd 167, 8048 Zürich", Zürich,«City Pop - Furnished Apartment in Zurich-Altstetten»,Zürich,420217,4778.9946548391,32.4584678868,491193.0,85446,47.39438247680664,8.486639022827148,249812.453125,679119.0625
261,1.5,23,1900,8048,"Bernerstrasse Süd 169, 8048 Zürich", Zürich,«City Pop - Your flexible solution for long and short stays!»,Zürich,420217,4778.9946548391,32.4584678868,491193.0,85446,47.39453125,8.486136436462402,249828.5625,679080.875
261,3.5,70,3680,8048,"Bachmattstrasse 39, 8048 Zürich", Zürich,«Attika-Wohnung an Bestlage!»,Zürich,420217,4778.9946548391,32.4584678868,491193.0,85446,47.39023971557617,8.484463691711426,249349.734375,678961.0
261,1.5,30,1740,8048,"Bachmattstrasse 39, 8048 Zürich", Zürich,«Perfekt für Singels!»,Zürich,420217,4778.9946548391,32.4584678868,491193.0,85446,47.39023971557617,8.484463691711426,249349.734375,678961.0
261,2.5,53,2640,8048,"Bachmattstrasse 39, 8048 Zürich", Zürich,«Moderne Wohnung an bester Lage zu vermieten»,Zürich,420217,4778.9946548391,32.4584678868,491193.0,85446,47.39023971557617,8.484463691711426,249349.734375,678961.0
261,2.5,76,2640,8048,8048 Zürich, Zürich,"«MÖBLIERT, TEMPORÄR: 2½ ZI-WOHNUNG IN ZÜRICH - KREIS 9 ALTSTETTEN»",Zürich,420217,4778.9946548391,32.4584678868,491193.0,85446,47.39164352416992,8.48184871673584,249502.9375,678761.5
261,4.5,151,4900,8048,8048 Zürich, Zürich,«4.5-Zimmer-Wohnung in der pulsierenden Metropole Zürich»,Zürich,420217,4778.9946548391,32.4584678868,491193.0,85446,47.39164352416992,8.48184871673584,249502.9375,678761.5
261,1.5,42,1980,8048,"Eugen-Huber-Str. 115, 8048 Zürich", Zürich,«Modern Living - Altstetten»,Zürich,420217,4778.9946548391,32.4584678868,491193.0,85446,47.38724899291992,8.475160598754883,249007.65625,678263.0
261,3.0,100,3750,8048,8048 Zürich, Zürich,"«NEUBAU, HELL, LUXURIÖS»",Zürich,420217,4778.9946548391,32.4584678868,491193.0,85446,47.39164352416992,8.48184871673584,249502.9375,678761.5
261,1.0,36,1610,8048,"Herrligstrasse 34, 8048 Zürich", Zürich,«Attraktive 1-Zi. Wohnung mit Balkon zu vermieten!»,Zürich,420217,4778.9946548391,32.4584678868,491193.0,85446,47.38911819458008,8.48475170135498,249225.03125,678984.4375
261,3.5,105,3700,8048,"Badenerstrasse 853, 8048 Zürich", Zürich,"«Attraktive und grosszügige 3,5-Zimmer-Attika-Wohnung»",Zürich,420217,4778.9946548391,32.4584678868,491193.0,85446,47.393123626708984,8.472699165344238,249658.25,678068.5625
261,3.5,86,3780,8048,8048 Zürich, Zürich,«Baden - Hochwertig möblierte Apartments im neuen Akara Tower Baden»,Zürich,420217,4778.9946548391,32.4584678868,491193.0,85446,47.39164352416992,8.48184871673584,249502.9375,678761.5
261,3.5,94,2981,8048,"Albulastrasse 60, 8048 Zürich", Zürich,«Grosszügige 3.5 Zimmerwohnungen zu einem attraktiven Preis»,Zürich,420217,4778.9946548391,32.4584678868,491193.0,85446,47.38902282714844,8.492106437683105,249222.140625,679539.8125
261,1.5,47,1850,8048,"Dachslernstrasse 85A, 8048 Zürich", Zürich,«Lichtvoller Raum ? Stadtleben mit Sitzplatz-Feeling ? frisch gestrichen!»,Zürich,420217,4778.9946548391,32.4584678868,491193.0,85446,47.39083480834961,8.4738187789917,249405.0,678156.4375
261,2.5,57,2830,8048,"Eugen-Huber-Str. 115, 8048 Zürich", Zürich,«Modern Living - Altstetten»,Zürich,420217,4778.9946548391,32.4584678868,491193.0,85446,47.38724899291992,8.475160598754883,249007.65625,678263.0
261,3.5,97,3317,8048,"Badenerstrasse 565, 8048 Zürich", Zürich,"«Schöne, helle Wohnung in Zürich»",Zürich,420217,4778.9946548391,32.4584678868,491193.0,85446,47.38383483886719,8.497687339782715,248650.78125,679969.0
261,1.0,26,1410,8048,"Saumackerstrasse 70, 8048 Zürich", Zürich,«1-Zimmerwohnung nähe Bahnhof Altstetten»,Zürich,420217,4778.9946548391,32.4584678868,491193.0,85446,47.3857536315918,8.487536430358887,248853.984375,679199.625
261,3.5,96,3617,8048,"Buckhauserstrasse 45, 8048 Zürich", Zürich,«Moderne une zentrale Wohnung!»,Zürich,420217,4778.9946548391,32.4584678868,491193.0,85446,47.3843994140625,8.493941307067871,248709.765625,679685.25
261,2.0,69,2957,8048,"Baslerstrasse 77, 8048 Zürich", Zürich,«Urbanes Wohnen in einem inspirierenden Umfeld»,Zürich,420217,4778.9946548391,32.4584678868,491193.0,85446,47.386112213134766,8.496638298034668,248902.890625,679886.3125
261,3.5,180,4835,8048,"Albulastrasse 60, 8048 Zürich", Zürich,«Einzigartige Loftwohnung im 12ten Himmel»,Zürich,420217,4778.9946548391,32.4584678868,491193.0,85446,47.38902282714844,8.492106437683105,249222.140625,679539.8125
261,1.5,30,3790,8008,"Baurstrasse 29, 8008 Zürich", Zürich,«ERFRISCHEND & FARBENFROH - LANGEWEILE ADIÒS! SENIOR STUDIO APARTMENT»,Zürich,420217,4778.9946548391,32.4584678868,491193.0,85446,47.35592269897461,8.554497718811035,245607.3125,684302.5625
261,1.5,25,3490,8008,"Baurstrasse 29, 8008 Zürich", Zürich,«HIGH QUALITY SERVICED STUDIO APARTMENT IN SEEFELD 2 mins from the lake»,Zürich,420217,4778.9946548391,32.4584678868,491193.0,85446,47.35592269897461,8.554497718811035,245607.3125,684302.5625
261,3.5,90,3350,8008,"Zollikerstrasse 243, 8008 Zürich", Zürich,«Besichtigung nach Vereinbarung:»,Zürich,420217,4778.9946548391,32.4584678868,491193.0,85446,47.347900390625,8.56692886352539,244729.109375,685254.5
261,4.5,156,6420,8008,"Signaustrasse 10, 8008 Zürich", Zürich,«Im Herzen von Zürich!»,Zürich,420217,4778.9946548391,32.4584678868,491193.0,85446,47.3629264831543,8.556802749633789,246388.546875,684465.5625
261,2.5,75,7090,8008,"Geranienstrasse, 8008 Zürich", Zürich,«Vermieten-Wohnung-Möbliertes Wohnobjekt 8008 Zürich Geranienstrasse»,Zürich,420217,4778.9946548391,32.4584678868,491193.0,85446,47.355995178222656,8.558079719543457,245619.296875,684573.0625
261,2.5,53,3200,8008,"Forchstrasse 84, 8008 Zürich", Zürich,«Erstvermietung moderner 2.5 Zimmer Attikawohnung»,Zürich,420217,4778.9946548391,32.4584678868,491193.0,85446,47.36206817626953,8.559245109558105,246295.8125,684651.4375
261,2.5,75,6190,8008,"Zollikerstrasse 227, 8008 Zürich", Zürich,«SERVICED & STYLED: 2.5 Zimmerwohnung mit Seesicht und Garten»,Zürich,420217,4778.9946548391,32.4584678868,491193.0,85446,47.348854064941406,8.565671920776367,244833.859375,685158.0
261,4.5,125,5180,8008,8008 Zürich, Zürich,«Ruhige Natur-Oase mit zentraler Anbindung: 4.5 Zimmer-Apartment im Kreis 7 von Zürich»,Zürich,420217,4778.9946548391,32.4584678868,491193.0,85446,47.354148864746094,8.560637474060059,245416.75,684769.1875
261,1.5,53,2860,8008,"Seefeldstrasse 102, 8008 Zürich", Zürich,«Stilvolles Wohnen im Trendquartier Seefeld»,Zürich,420217,4778.9946548391,32.4584678868,491193.0,85446,47.35956954956055,8.552647590637207,246010.734375,684157.0
261,4.5,120,4265,8008,"Seefeldstrasse 253, 8008 Zürich", Zürich,«Grosszügige 4.5-Zimmer-Wohnung im Seefeld»,Zürich,420217,4778.9946548391,32.4584678868,491193.0,85446,47.35039138793945,8.563050270080566,245001.84375,684957.5
261,2.5,73,3730,8008,"Seefeldstrasse 102, 8008 Zürich", Zürich,«Stilvolles Wohnen im Trendquartier Seefeld»,Zürich,420217,4778.9946548391,32.4584678868,491193.0,85446,47.35956954956055,8.552647590637207,246010.734375,684157.0
261,2.5,75,3290,8008,"Münchhaldenstr. 38, 8008 Zürich", Zürich,"«2,5 Zimmmer Wohnung in Zürich-Seefeld»",Zürich,420217,4778.9946548391,32.4584678868,491193.0,85446,47.35536193847656,8.56009578704834,245551.0,684726.375
261,3.5,80,5080,8008,"Magnolienstrasse 6, 8008 Zürich", Zürich,«Luxury and modern furnished 2-bedroom apartment with balcony and weekly cleaning service for rent»,Zürich,420217,4778.9946548391,32.4584678868,491193.0,85446,47.36042404174805,8.551100730895996,246104.125,684038.875
261,3.5,113,5550,8008,8008 Zürich, Zürich,«MODERN AN EXCELLENTER LAGE IM SEEFELD»,Zürich,420217,4778.9946548391,32.4584678868,491193.0,85446,47.354148864746094,8.560637474060059,245416.75,684769.1875
261,6.5,240,700,8008,8008 Zürich, Zürich,«EXKLUSIV MÖBLIERTES PENTHOUSE»,Zürich,420217,4778.9946548391,32.4584678868,491193.0,85446,47.354148864746094,8.560637474060059,245416.75,684769.1875
261,4.0,94,4900,8008,"Dufourstrasse 24, 8008 Zürich", Zürich,«Attraktive Bürofläche im Herzen des Zürcher Seefelds»,Zürich,420217,4778.9946548391,32.4584678868,491193.0,85446,47.36371994018555,8.547530174255371,246466.890625,683763.9375
261,1.5,30,3890,8008,"Baurstrasse 29, 8008 Zürich", Zürich,«Senior 1.5 room apartment with balcony»,Zürich,420217,4778.9946548391,32.4584678868,491193.0,85446,47.35592269897461,8.554497718811035,245607.3125,684302.5625
261,3.5,80,5080,8008,"Magnolienstrasse 6, 8008 Zürich", Zürich,«Luxury furnished 2-bedroom apartment in Zürich-Seefeld for rent»,Zürich,420217,4778.9946548391,32.4584678868,491193.0,85446,47.36042404174805,8.551100730895996,246104.125,684038.875
261,3.0,89,4470,8008,"Forchstrasse 24, 8008 Zürich", Zürich,«Tolle Maisonette-Wohnung»,Zürich,420217,4778.9946548391,32.4584678868,491193.0,85446,47.36378479003906,8.5558443069458,246482.9375,684391.875
261,3.0,80,3930,8008,"Forchstrasse 22, 8008 Zürich", Zürich,«Zürich-Kreuzplatz»,Zürich,420217,4778.9946548391,32.4584678868,491193.0,85446,47.36381149291992,8.55556583404541,246485.71875,684370.8125
261,2.5,94,4805,8008,"Mühlebachstr. 28, 8008 Zürich", Zürich,«grosszügige Wohnung im Seefeld und direkter Lage am Zürich Stadelhofen»,Zürich,420217,4778.9946548391,32.4584678868,491193.0,85446,47.3648567199707,8.550126075744629,246595.875,683958.1875
261,2.5,81,3930,8008,"Forchstrasse 84, 8008 Zürich", Zürich,«Modernen und attraktive Wohnung im Seefeld mit grosszügigem Balkon»,Zürich,420217,4778.9946548391,32.4584678868,491193.0,85446,47.36206817626953,8.559245109558105,246295.8125,684651.4375
261,3.5,100,4350,8008,"Färberstrasse 28, 8008 Zürich", Zürich,«Exklusive Stadtwohnung im Zürcher Seefeld»,Zürich,420217,4778.9946548391,32.4584678868,491193.0,85446,47.3619384765625,8.549738883972168,246271.03125,683933.625
261,2.5,89,4265,8008,"Klausstrasse 23, 8008 Zürich", Zürich,«Repräsentative Wohnung an zentraler Lage»,Zürich,420217,4778.9946548391,32.4584678868,491193.0,85446,47.35914993286133,8.550260543823242,245961.515625,683977.4375
261,3.5,169,9000,8008,"Utoquai 37, 8008 Zürich", Zürich,«Exklusiver Seeblick: Luxuriöses Wohnen an der Seepromenade!»,Zürich,420217,4778.9946548391,32.4584678868,491193.0,85446,47.36368179321289,8.546780586242676,246461.734375,683707.375
261,4.0,215,790,8008,"Utoquai 37, 8008 Zürich", Zürich,«Exklusiver Seeblick: Luxuriöses Wohnen an der Seepromenade!»,Zürich,420217,4778.9946548391,32.4584678868,491193.0,85446,47.36368179321289,8.546780586242676,246461.734375,683707.375
261,3.5,85,3576,8008,"Forchstr. 26, 8008 Zürich", Zürich,«Tolle 3.5 Zimmerwohnung an top Lage!»,Zürich,420217,4778.9946548391,32.4584678868,491193.0,85446,47.363990783691406,8.556114196777344,246505.90625,684411.9375
261,2.5,75,6590,8003,"Zentralstrasse 37, 8003 Zürich", Zürich,"«""URBAN LUXURY with ROOFTOP TERRACE ACCESS""»",Zürich,420217,4778.9946548391,32.4584678868,491193.0,85446,47.37150573730469,8.519575119018555,247302.78125,681640.5
261,2.0,52,2820,8003,"Zweierstrasse 119, 8003 Zürich", Zürich,"«Voll rennovierte 2.0 Zim.,Keller,W/T, im Herz von Wiedikon, höhe Quali»",Zürich,420217,4778.9946548391,32.4584678868,491193.0,85446,47.37126159667969,8.520977973937988,247277.1875,681746.8125
261,2.0,62,3200,8003,"Steinstrasse  25, 8003 Zürich", Zürich,«Grossstadtleben - Wohnung 501»,Zürich,420217,4778.9946548391,32.4584678868,491193.0,85446,47.367637634277344,8.51993465423584,246873.171875,681673.625
261,3.5,70,3580,8003,"Wuhrstrasse 34, 8003 Zürich", Zürich,«Charming 3.5 room apartment with weekly cleaning service for rent»,Zürich,420217,4778.9946548391,32.4584678868,491193.0,85446,47.36807632446289,8.52061653137207,246922.796875,681724.4375
261,1.5,30,2690,8003,"Rotachstrasse 20, 8003 Zürich", Zürich,«Modern furnished and spacious studio apartment with weekly cleaning service for rent»,Zürich,420217,4778.9946548391,32.4584678868,491193.0,85446,47.37022399902344,8.516550064086914,247157.265625,681414.0
261,2.5,49,3410,8003,"Aemtlerstrasse 86, 8003 Zürich", Zürich,«Modern furnished 1-bedroom apartment with balcony and weekly cleaning service for rent»,Zürich,420217,4778.9946548391,32.4584678868,491193.0,85446,47.37385559082031,8.513795852661133,247558.234375,681200.4375
261,2.5,30,3030,8003,"Rotachstrasse 17, 8003 Zürich", Zürich,«We rent modern furnished 1 bedroom apartment with weekly cleaning service»,Zürich,420217,4778.9946548391,32.4584678868,491193.0,85446,47.36972427368164,8.516075134277344,247101.03125,681378.875
261,4.5,115,8490,8003,"Gotthelfstrasse 41, 8003 Zürich", Zürich,«BRANDNEW & BLISSFUL: attic 2-bedroom serviced apartment Wiedikon»,Zürich,420217,4778.9946548391,32.4584678868,491193.0,85446,47.368507385253906,8.521334648132324,246971.34375,681778.0
261,1.0,28,2660,8003,"Martastrasse 121, 8003 Zürich", Zürich,"«Sonnenbescheine Wiedikon 1.0 Zim.+W/T, +Lag, 1 Min. zum Markt»",Zürich,420217,4778.9946548391,32.4584678868,491193.0,85446,47.37554931640625,8.514208793640137,247746.875,681229.0625
261,1.5,28,2660,8003,"Martastrasse 121, 8003 Zürich", Zürich,"«Schöne Wiedikon 1.5 Zim.+W/T, +Lag, 1 Min. zum Markt, über Blueground»",Zürich,420217,4778.9946548391,32.4584678868,491193.0,85446,47.37554931640625,8.514208793640137,247746.875,681229.0625
261,2.5,60,3710,8003,"Kalkbreitestrasse 41, 8003 Zürich", Zürich,«Spacious modern furnished 1-bedroom apartment with balcony and weekly cleaning service for rent»,Zürich,420217,4778.9946548391,32.4584678868,491193.0,85446,47.37330627441406,8.519449234008789,247502.859375,681628.1875
261,2.5,55,3710,8003,"Wuhrstrasse 30, 8003 Zürich", Zürich,«Tastefully furnished 1-bedroom apartment with balcony ans weekly cleaning service for rent»,Zürich,420217,4778.9946548391,32.4584678868,491193.0,85446,47.36793518066406,8.520748138427734,246906.984375,681734.5625
261,2.5,71,4055,8003,"Rotachstrasse 17, 8003 Zürich", Zürich,«Modern furnished 1-bedroom apartment with garden seat for rent»,Zürich,420217,4778.9946548391,32.4584678868,491193.0,85446,47.36972427368164,8.516075134277344,247101.03125,681378.875
261,3.5,79,4080,8003,"Gertrudstrasse 22, 8003 Zürich", Zürich,«Modern furnished 2-bedroom apartment with balcony and weekly cleaning service for rent»,Zürich,420217,4778.9946548391,32.4584678868,491193.0,85446,47.37406921386719,8.51603889465332,247584.109375,681369.5
261,2.5,55,3610,8003,"Aemtlerstrasse 86, 8003 Zürich", Zürich,«Spacious 1-bedroom apartment with balcony and weekly cleaning service for rent»,Zürich,420217,4778.9946548391,32.4584678868,491193.0,85446,47.37385559082031,8.513795852661133,247558.234375,681200.4375
261,2.5,50,3710,8003,"Rotachstrasse 20, 8003 Zürich", Zürich,«Modern furnished 1-bedroom attic apartment with weekly cleaning service for rent»,Zürich,420217,4778.9946548391,32.4584678868,491193.0,85446,47.37022399902344,8.516550064086914,247157.265625,681414.0
261,1.5,36,2990,8003,"Gertrudstrasse 22, 8003 Zürich", Zürich,«Furnished and spacious 1.5-bedroom apartment with weekly cleaning service for rent»,Zürich,420217,4778.9946548391,32.4584678868,491193.0,85446,47.37406921386719,8.51603889465332,247584.109375,681369.5
261,1.0,17,650,8003,"Zentralstr. 49, 8003 Zürich", Zürich,«Wohnen in einem der beliebtesten Quartiere von Zürich»,Zürich,420217,4778.9946548391,32.4584678868,491193.0,85446,47.371944427490234,8.519039154052734,247351.25,681599.3125
261,3.5,65,3480,8003,8003 Zürich, Zürich,"«MÖBLIERT, TEMPORÄR: 3½ ZI-WOHNUNG IN ZÜRICH - KREIS 3 WIEDIKON»",Zürich,420217,4778.9946548391,32.4584678868,491193.0,85446,47.371971130371094,8.516231536865234,247351.03125,681387.25
261,3.5,78,2970,8003,"Friedaustrasse 7, 8003 Zürich", Zürich,«Zentrale 3.5-Zimmer-Wohnung»,Zürich,420217,4778.9946548391,32.4584678868,491193.0,85446,47.37682342529297,8.510170936584473,247884.484375,680922.1875
261,2.5,45,3610,8003,"Rotachstrasse 17, 8003 Zürich", Zürich,«Modern furnished 1-bedroom apartment with balcony and weekly cleaning service for rent»,Zürich,420217,4778.9946548391,32.4584678868,491193.0,85446,47.36972427368164,8.516075134277344,247101.03125,681378.875
261,1.5,30,2490,8003,"Kalkbreitestrasse 41, 8003 Zürich", Zürich,«Modern furnished studio apartment with weekly cleaning service for rent»,Zürich,420217,4778.9946548391,32.4584678868,491193.0,85446,47.37330627441406,8.519449234008789,247502.859375,681628.1875
261,3.5,70,3980,8003,"Wuhrstrasse 32, 8003 Zürich", Zürich,«Modern furnished 2-bedroom apartment with balcony»,Zürich,420217,4778.9946548391,32.4584678868,491193.0,85446,47.36801528930664,8.520671844482422,246915.96875,681728.6875
261,2.5,40,3410,8003,"Rotachstrasse 17, 8003 Zürich", Zürich,«Furnished business Apartments for rent»,Zürich,420217,4778.9946548391,32.4584678868,491193.0,85446,47.36972427368164,8.516075134277344,247101.03125,681378.875
261,2.5,45,3500,8003,"Schrennengasse 14, 8003 Zürich", Zürich,"«Luxus Wiedikon 2.5 Zim.+W/T, +Lag, 1 Min. zum Markt, über Blueground»",Zürich,420217,4778.9946548391,32.4584678868,491193.0,85446,47.36940383911133,8.516093254089355,247065.46875,681380.75
261,2.0,55,2920,8003,"Zweierstrasse 119, 8003 Zürich", Zürich,"«Schike Wiedikon 2.0 Zim.,Keller,W/T. 3 Min. zum Markt, über Blueground»",Zürich,420217,4778.9946548391,32.4584678868,491193.0,85446,47.37126159667969,8.520977973937988,247277.1875,681746.8125
261,2.5,68,2110,8003,"Bertastrasse 28, 8003 Zürich", Zürich,«Charmante Stadtwohnung im Kreis 3!»,Zürich,420217,4778.9946548391,32.4584678868,491193.0,85446,47.37435531616211,8.514012336730957,247614.0625,681216.0625
261,3.0,60,3150,8003,"Wuhrstrasse 32, 8003 Zürich", Zürich,«Befristet - Gemütliche 3-Zimmerwohnung mit eigener Dachterrasse in Wiedikon zu vermieten»,Zürich,420217,4778.9946548391,32.4584678868,491193.0,85446,47.36801528930664,8.520671844482422,246915.96875,681728.6875
261,2.5,62,3300,8003,"Steinstrass  25, 8003 Zürich", Zürich,«Grossstadtleben - Wohnung 301»,Zürich,420217,4778.9946548391,32.4584678868,491193.0,85446,47.367637634277344,8.51993465423584,246873.171875,681673.625
261,3.5,97,5080,8003,"Wuhrstrasse 30, 8003 Zürich", Zürich,«Modern furnished 2-bedroom attic apartement with spacious terrace for rent»,Zürich,420217,4778.9946548391,32.4584678868,491193.0,85446,47.36793518066406,8.520748138427734,246906.984375,681734.5625
261,2.5,47,1850,8003,"Gotthelfstr. 42, 8003 Zürich", Zürich,«Ihr neues Zuhause im Kreis 3»,Zürich,420217,4778.9946548391,32.4584678868,491193.0,85446,47.3687629699707,8.52110767364502,246999.3125,681760.4375
261,4.5,141,4970,8003,"Bremgartnerstrasse 51, 8003 Zürich", Zürich,«Cityloft mit flexibler Raumunterteilung»,Zürich,420217,4778.9946548391,32.4584678868,491193.0,85446,47.37092590332031,8.518403053283691,247237.21875,681552.875
261,3.5,92,4580,8003,"Wuhrstrasse 30, 8003 Zürich", Zürich,«Grosszügige 3.5-Zimmerwohnung mit eigener Dachterrasse in Wiedikon zu vermieten»,Zürich,420217,4778.9946548391,32.4584678868,491193.0,85446,47.36793518066406,8.520748138427734,246906.984375,681734.5625
261,2.5,53,2290,8003,"Weststrasse 55, 8003 Zürich", Zürich,«2.5-Zimmerwohnung im Kreis 3»,Zürich,420217,4778.9946548391,32.4584678868,491193.0,85446,47.37036895751953,8.522265434265137,247179.4375,681845.4375
261,1.0,24,1920,8003,"Steinstrasse 27, 8003 Zürich", Zürich,«Renovierte 1-Zimmerwohnung in Wiedikon»,Zürich,420217,4778.9946548391,32.4584678868,491193.0,85446,47.367523193359375,8.519974708557129,246860.625,681676.8125
261,2.0,58,2195,8047,8047 Zürich, Zürich,"«MÖBLIERT, TEMPORÄR: 2 ZI-WOHNUNG IN ZÜRICH - KREIS 9 ALBISRIEDEN»",Zürich,420217,4778.9946548391,32.4584678868,491193.0,85446,47.37489318847656,8.486019134521484,247645.046875,679101.1875
261,3.0,67,2600,8047,8047 Zürich, Zürich,«Traumhafte 3-Zimmer-Wohnung in Zürich Albisrieden»,Zürich,420217,4778.9946548391,32.4584678868,491193.0,85446,47.37489318847656,8.486019134521484,247645.046875,679101.1875
261,3.5,100,3360,8047,8047 Zürich, Zürich,"«MÖBLIERT, TEMPORÄR: 3½ ZI-WOHNUNG IN ZÜRICH - KREIS 9 ALBISRIEDEN»",Zürich,420217,4778.9946548391,32.4584678868,491193.0,85446,47.37489318847656,8.486019134521484,247645.046875,679101.1875
261,3.5,98,3960,8047,8047 Zürich, Zürich,"«MÖBLIERT, TEMPORÄR: 3½ ZI-WOHNUNG IN ZÜRICH - KREIS 9 ALBISRIEDEN»",Zürich,420217,4778.9946548391,32.4584678868,491193.0,85446,47.37489318847656,8.486019134521484,247645.046875,679101.1875
261,2.5,80,3240,8047,8047 Zürich, Zürich,"«MÖBLIERT, TEMPORÄR: 2½ ZI-WOHNUNG IN ZÜRICH - KREIS 9 ALBISRIEDEN»",Zürich,420217,4778.9946548391,32.4584678868,491193.0,85446,47.37489318847656,8.486019134521484,247645.046875,679101.1875
261,3.5,100,3420,8047,8047 Zürich, Zürich,"«MÖBLIERT, TEMPORÄR: 3½ ZI-WOHNUNG IN ZÜRICH - KREIS 9 ALBISRIEDEN»",Zürich,420217,4778.9946548391,32.4584678868,491193.0,85446,47.37489318847656,8.486019134521484,247645.046875,679101.1875
261,5.5,152,5000,8047,"Spiserstrasse 15, 8047 Zürich", Zürich,«Traumhafte 5.5 Zimmer Haushälfte!»,Zürich,420217,4778.9946548391,32.4584678868,491193.0,85446,47.37910842895508,8.493478775024414,248121.140625,679658.3125
261,4.5,94,3010,8047,"Dennlerstr. 24, 8047 Zürich", Zürich,«Zentral gelegene 4.5-Zimmer Wohnung»,Zürich,420217,4778.9946548391,32.4584678868,491193.0,85446,47.381561279296875,8.497806549072266,248398.359375,679981.3125
261,3.5,87,2770,8047,"Dennlerstr. 22, 8047 Zürich", Zürich,«Maisonette-Wohnung an ruhiger Lage Nähe Einkaufszentrum Letzipark»,Zürich,420217,4778.9946548391,32.4584678868,491193.0,85446,47.38163757324219,8.497901916503906,248406.8125,679988.4375
261,3.5,82,2705,8047,"Dennlerstr. 22, 8047 Zürich", Zürich,«Mieten ohne Kaution - Zentral gelegene 3.5 Zimmer-Maisonettewohnung»,Zürich,420217,4778.9946548391,32.4584678868,491193.0,85446,47.38163757324219,8.497901916503906,248406.8125,679988.4375
261,2.0,46,2050,8047,"Dennlerstr. 24, 8047 Zürich", Zürich,«Single Wohnung Nähe Letzipark - MIETEN OHNE KAUTION»,Zürich,420217,4778.9946548391,32.4584678868,491193.0,85446,47.381561279296875,8.497806549072266,248398.359375,679981.3125
261,3.5,110,4325,8047,"Letzigraben 116, 8047 Zürich", Zürich,««LETZ9». Let'z live a good life.»,Zürich,420217,4778.9946548391,32.4584678868,491193.0,85446,47.37694549560547,8.497270584106445,247884.75,679947.875
261,3.5,110,4155,8047,"Letzigraben 114, 8047 Zürich", Zürich,««LETZ9». Let'z live a good life.»,Zürich,420217,4778.9946548391,32.4584678868,491193.0,85446,47.376834869384766,8.497557640075684,247872.59375,679969.6875
261,3.5,74,2590,8047,"Dennlerstr. 24, 8047 Zürich", Zürich,«Idyllisch und zentral Wohnen»,Zürich,420217,4778.9946548391,32.4584678868,491193.0,85446,47.381561279296875,8.497806549072266,248398.359375,679981.3125
261,2.5,47,2880,8044,8044 Zürich, Zürich,"«MÖBLIERT, TEMPORÄR: 2½ ZI-WOHNUNG IN ZÜRICH - KREIS 7 FLUNTERN»",Zürich,420217,4778.9946548391,32.4584678868,491193.0,85446,47.37373352050781,8.555002212524414,247587.875,684312.5
261,4.0,103,4991,8044,"Gladbachstrasse 43, 8044 Zürich", Zürich,«An sonniger Lage mit grossem Gartensitzplatz zur Alleinbenutzung»,Zürich,420217,4778.9946548391,32.4584678868,491193.0,85446,47.38200759887695,8.55249309539795,248505.015625,684110.0
261,7.5,198,7740,8044,8044 Zürich, Zürich,«Beeindruckende Duplex-Wohnung an begehrter Wohnlage»,Zürich,420217,4778.9946548391,32.4584678868,491193.0,85446,47.37373352050781,8.555002212524414,247587.875,684312.5
261,2.5,73,2375,8044,"Herzogstrasse 4, 8044 Zürich", Zürich,«Wohnung in Zürich»,Zürich,420217,4778.9946548391,32.4584678868,491193.0,85446,47.379581451416016,8.556402206420898,248239.46875,684409.0
261,4.5,121,4510,8044,"Forsterstrasse 67, 8044 Zürich", Zürich,«Charmante Wohnung am Zürichberg»,Zürich,420217,4778.9946548391,32.4584678868,491193.0,85446,47.381378173828125,8.559873580932617,248443.234375,684668.25
261,4.5,128,7400,8044,"Freudenbergstrasse 94, 8044 Zürich", Zürich,"«Elite Fluntern 4.5 Zim.+W/T, +Lag.,7 Min. zum Markt, über Blueground»",Zürich,420217,4778.9946548391,32.4584678868,491193.0,85446,47.384132385253906,8.55653190612793,248745.71875,684411.5625
261,3.0,100,3935,8044,"Fritz-Fleiner-Weg, 8044 Zürich", Zürich,«Appartement Zürich - 3 pièces»,Zürich,420217,4778.9946548391,32.4584678868,491193.0,85446,47.381935119628906,8.560834884643555,248506.125,684739.9375
261,4.5,105,3850,8044,"Restelbergstrasse 64, 8044 Zürich", Zürich,«moderne 4.5-Zimmerwohnung mit grosszügigem Gartensitzplatz am Zürichberg»,Zürich,420217,4778.9946548391,32.4584678868,491193.0,85446,47.38332748413086,8.555638313293457,248655.21875,684345.375
261,3.5,114,4882,8044,"Fritz Fleiner-Weg 11, 8044 Zürich", Zürich,«Exklusive Gartenwohnung am Zürichberg»,Zürich,420217,4778.9946548391,32.4584678868,491193.0,85446,47.38129806518555,8.56221866607666,248436.578125,684845.4375
261,1.0,16,1020,8051,8051 Zürich, Zürich,«Schönes WG-Zimmer mit guter öV-Anbindung»,Zürich,420217,4778.9946548391,32.4584678868,491193.0,85446,47.40443420410156,8.563179969787598,251009.765625,684881.125
261,1.0,14,960,8051,8051 Zürich, Zürich,«Schönes WG-Zimmer mit guter ÖV-Anbindung»,Zürich,420217,4778.9946548391,32.4584678868,491193.0,85446,47.40443420410156,8.563179969787598,251009.765625,684881.125
261,2.5,75,2290,8051,"Winterthurerstrasse 614, 8051 Zürich", Zürich,«2.5 Zimmer-Wohnungen im Neubauprojekt Meadows»,Zürich,420217,4778.9946548391,32.4584678868,491193.0,85446,47.4050407409668,8.578181266784668,251093.796875,686012.4375
261,4.5,100,3700,8051,8051 Zürich, Zürich,«Erstbezug - Schöne 4.5-Zimmer-Neubauwohnung zentrumsnah in Zürich Schwamendingen»,Zürich,420217,4778.9946548391,32.4584678868,491193.0,85446,47.40443420410156,8.563179969787598,251009.765625,684881.125
261,4.5,100,3600,8051,8051 Zürich, Zürich,«Erstbezug - Schöne 4.5-Zimmer-Neubauwohnung zentrumsnah in Zürich Schwamendingen»,Zürich,420217,4778.9946548391,32.4584678868,491193.0,85446,47.40443420410156,8.563179969787598,251009.765625,684881.125
261,3.5,86,3290,8051,"Winterthurerstrasse 614, 8051 Zürich", Zürich,«Attikawohnung im Neubauprojekt Meadows»,Zürich,420217,4778.9946548391,32.4584678868,491193.0,85446,47.4050407409668,8.578181266784668,251093.796875,686012.4375
261,3.5,74,2365,8051,"Altwiesenstrasse 346, 8051 Zürich", Zürich,«Mitten in Zürich!»,Zürich,420217,4778.9946548391,32.4584678868,491193.0,85446,47.399959564208984,8.590506553649902,250542.4375,686950.9375
261,2.0,43,1250,8051,"Grosswiesenstrasse 38, 8051 Zürich", Zürich,«Charmante Wohnung befristet bis 30.09.2024»,Zürich,420217,4778.9946548391,32.4584678868,491193.0,85446,47.405120849609375,8.55859088897705,251081.234375,684533.6875
261,2.0,43,1390,8051,"Grosswiesenstrasse 50, 8051 Zürich", Zürich,«Charmante Wohnung befristet bis 30.09.2024»,Zürich,420217,4778.9946548391,32.4584678868,491193.0,85446,47.40293502807617,8.588171005249023,250870.5625,686769.8125
261,2.5,63,1937,8051,"Luegislandstrasse 88, 8051 Zürich", Zürich,«Ihre neue Wohlfühloase»,Zürich,420217,4778.9946548391,32.4584678868,491193.0,85446,47.40705871582031,8.568751335144043,251307.625,685297.4375
261,3.5,82,2990,8051,"Roswiesenstrasse 122, 8051 Zürich", Zürich,«Eleganz und Wohnkomfort auf Eigentumsniveau!»,Zürich,420217,4778.9946548391,32.4584678868,491193.0,85446,47.40614318847656,8.578473091125488,251216.5,686032.625
261,1.0,25,1990,8004,"St. Jakobstrasse 39, 8004 Zürich", Zürich,«Möbliertes 1-Zimmer-Apartment mit Balkon in der Innenstadt Zürich»,Zürich,420217,4778.9946548391,32.4584678868,491193.0,85446,47.37488555908203,8.529394149780273,247688.78125,682376.875
261,1.5,32,2900,8004,"St. Jakobstrasse 39, 8004 Zürich", Zürich,«Möbliertes 1.5-Zimmer-Apartment mit Terrasse in der Innenstadt Zürich»,Zürich,420217,4778.9946548391,32.4584678868,491193.0,85446,47.37488555908203,8.529394149780273,247688.78125,682376.875
261,3.5,78,4750,8004,"Ankerstrasse 114, 8004 Zürich", Zürich,«3.5 Zimmer Attikawohnung»,Zürich,420217,4778.9946548391,32.4584678868,491193.0,85446,47.37624740600586,8.528149604797363,247838.828125,682280.75
261,2.5,87,5350,8004,"Ankerstrasse 114, 8004 Zürich", Zürich,«Maisonettewohnung im Kreis 4 Zürich mit grosser Terrasse»,Zürich,420217,4778.9946548391,32.4584678868,491193.0,85446,47.37624740600586,8.528149604797363,247838.828125,682280.75
261,4.5,140,9950,8004,"Gustav-Gull-Platz 4, 8004 Zürich", Zürich,«Welcome to Zurich Skyline - 4.5 Zimmerwohnung mit Weitblick»,Zürich,420217,4778.9946548391,32.4584678868,491193.0,85446,47.37947082519531,8.531120300292969,248200.515625,682500.125
261,4.5,89,3490,8004,8004 Zürich, Zürich,«Traumhafte 4.5 Zimmer-Wohnung in Zürich»,Zürich,420217,4778.9946548391,32.4584678868,491193.0,85446,47.377140045166016,8.515775680541992,247925.203125,681344.9375
261,3.0,65,3160,8004,"Verena-Conzett-Strasse 20, 8004 Zürich", Zürich,"«Feine Wiedikon 3ZW mit Keller, nah Tram und Markt, über Blueground»",Zürich,420217,4778.9946548391,32.4584678868,491193.0,85446,47.37068176269531,8.52639102935791,247218.28125,682156.5
261,3.5,86,4480,8004,"Pflanzschulstrasse 95, 8004 Zürich", Zürich,"«Charmantes Langstraße 3.5 Zim.+Lager, 5 Min. zur Tram, über Blueground»",Zürich,420217,4778.9946548391,32.4584678868,491193.0,85446,47.37873077392578,8.521756172180176,248108.234375,681794.125
261,2.5,50,3100,8004,8004 Zürich, Zürich,«Mitten im In-Quartier von Zürich»,Zürich,420217,4778.9946548391,32.4584678868,491193.0,85446,47.377140045166016,8.515775680541992,247925.203125,681344.9375
261,2.5,75,3740,8004,"Hallwylstrasse 84, 8004 Zürich", Zürich,"«Sonnige Wiedikon 2.5 Zim., +Lag.,1 Min. zum Markt, über Blueground»",Zürich,420217,4778.9946548391,32.4584678868,491193.0,85446,47.369815826416016,8.526166915893555,247121.734375,682140.9375
261,1.0,19,1120,8004,"Morgartenstrasse 12, 8004 Zürich", Zürich,«Studio im Herzen von Zürich»,Zürich,420217,4778.9946548391,32.4584678868,491193.0,85446,47.37139129638672,8.528953552246094,247299.859375,682348.9375
261,2.5,58,3100,8004,"Badenerstrasse 250, 8004 Zürich", Zürich,«Moderner Wohntraum verteilt auf 2 Etagen - KREIS 4»,Zürich,420217,4778.9946548391,32.4584678868,491193.0,85446,47.3759880065918,8.516037940979004,247797.4375,681366.5
261,3.5,91,3800,8004,"St. Jakobstrasse 8, 8004 Zürich", Zürich,"«Elegante 3.5-Zimmer-Altbauwohnung (91 m2) mit 2 Balkonen, top Zustand, beim Stauffacher»",Zürich,420217,4778.9946548391,32.4584678868,491193.0,85446,47.37379837036133,8.528243064880371,247566.8125,682291.5625
261,1.5,25,1885,8004,"Müllerstrasse 76, 8004 Zürich", Zürich,«Mitten in der Stadt Zürich»,Zürich,420217,4778.9946548391,32.4584678868,491193.0,85446,47.37632369995117,8.528502464294434,247847.703125,682307.25
261,2.5,58,3100,8004,"Badenerstrasse  250, 8004 Zürich", Zürich,«Mittendrin statt nur dabei!»,Zürich,420217,4778.9946548391,32.4584678868,491193.0,85446,47.3759880065918,8.516037940979004,247797.4375,681366.5
261,2.5,46,3300,8004,"Badenerstrasse  250, 8004 Zürich", Zürich,«Kreis 4 - Möblierte Apartments in bester Lage»,Zürich,420217,4778.9946548391,32.4584678868,491193.0,85446,47.3759880065918,8.516037940979004,247797.4375,681366.5
261,2.5,58,3100,8004,"Badenerstrasse 250, 8004 Zürich", Zürich,«When living becomes a pleasure - Privileged location - Kreis 4»,Zürich,420217,4778.9946548391,32.4584678868,491193.0,85446,47.3759880065918,8.516037940979004,247797.4375,681366.5
261,1.5,25,2250,8004,"Badenerstrasse 250, 8004 Zürich", Zürich,"«Attraktiv, möbliert direkt beim Lochergut»",Zürich,420217,4778.9946548391,32.4584678868,491193.0,85446,47.3759880065918,8.516037940979004,247797.4375,681366.5
261,4.0,110,6000,8004,8004 Zürich, Zürich,«Spacious Luxury Apartment Zurich - very central»,Zürich,420217,4778.9946548391,32.4584678868,491193.0,85446,47.377140045166016,8.515775680541992,247925.203125,681344.9375
261,3.5,123,4650,8004,"Kasernenstrasse 77 B, 8004 Zürich", Zürich,«Attraktive Maisonettewohnung mit grosser Dachterrasse»,Zürich,420217,4778.9946548391,32.4584678868,491193.0,85446,47.37635803222656,8.534090995788574,247857.40625,682729.25
261,2.0,92,3920,8004,"Hohlstrasse 212, 8004 Zürich", Zürich,"«Loft mit Licht, Luft, Lage, Luxus»",Zürich,420217,4778.9946548391,32.4584678868,491193.0,85446,47.38220977783203,8.516839027404785,248489.84375,681417.5
261,1.0,23,1160,8046,8046 Zürich, Zürich,«Möbliertes Zimmer nähe ETH»,Zürich,420217,4778.9946548391,32.4584678868,491193.0,85446,47.4151725769043,8.527069091796875,252165.359375,682139.125
261,2.5,66,2480,8046,"Hungerbergstr. 27, 8046 Zürich", Zürich,«Moderne 2.5-Zimmer-Wohnung im Grünen zu vermieten»,Zürich,420217,4778.9946548391,32.4584678868,491193.0,85446,47.4186897277832,8.501432418823242,252529.59375,680199.25
261,3.0,80,3000,8046,8046 Zürich, Zürich,«Renovierter Wohntraum mit Wintergarten»,Zürich,420217,4778.9946548391,32.4584678868,491193.0,85446,47.4151725769043,8.527069091796875,252165.359375,682139.125
261,1.5,39,1739,8046,"Hungerbergstr. 27, 8046 Zürich", Zürich,«Moderne 1.5-Zimmer-Wohnung im Grünen zu vermieten»,Zürich,420217,4778.9946548391,32.4584678868,491193.0,85446,47.4186897277832,8.501432418823242,252529.59375,680199.25
261,4.0,80,2084,8046,"Wehntalerstrasse 525, 8046 Zürich", Zürich,«Wohnen am Stadtrand Zürichs»,Zürich,420217,4778.9946548391,32.4584678868,491193.0,85446,47.41813278198242,8.507867813110352,252474.40625,680685.6875
261,3.0,90,2095,8046,"Hungerbergstrasse 5, 8046 Zürich", Zürich,"«Ruhig, hell, preiswert»",Zürich,420217,4778.9946548391,32.4584678868,491193.0,85446,47.420188903808594,8.501709938049316,252696.59375,680217.875
261,3.0,55,2170,8046,"Waldstrasse 12, 8046 Zürich", Zürich,«Ihre Wohnung in der Nähe des Bucheggplatz!»,Zürich,420217,4778.9946548391,32.4584678868,491193.0,85446,47.41017532348633,8.523761749267578,251606.21875,681897.1875
261,3.5,130,5520,8055,8055 Zürich, Zürich,"«MÖBLIERT, TEMPORÄR: 3½ ZI-WOHNUNG IN ZÜRICH - KREIS 3 BINZ»",Zürich,420217,4778.9946548391,32.4584678868,491193.0,85446,47.36477279663086,8.505189895629883,246539.53125,680564.25
261,2.5,54,2290,8055,"Birmensdorferstrasse 450, 8055 Zürich", Zürich,«2.5 Zimmerwohnung in Zürich»,Zürich,420217,4778.9946548391,32.4584678868,491193.0,85446,47.36882781982422,8.499425888061523,246984.25,680122.8125
261,1.5,56,2130,8055,"Birmensdorferstrasse 450, 8055 Zürich", Zürich,«1.5 Zimmerwohnung in Zürich»,Zürich,420217,4778.9946548391,32.4584678868,491193.0,85446,47.36882781982422,8.499425888061523,246984.25,680122.8125
261,5.5,122,4950,8055,"Birmensdorferstrasse 450, 8055 Zürich", Zürich,«5.5 Zimmerwohnung in Zürich»,Zürich,420217,4778.9946548391,32.4584678868,491193.0,85446,47.36882781982422,8.499425888061523,246984.25,680122.8125
261,4.5,97,4100,8055,"Birmensdorferstrasse 450, 8055 Zürich", Zürich,«4.5 Zimmerwohnung in Zürich»,Zürich,420217,4778.9946548391,32.4584678868,491193.0,85446,47.36882781982422,8.499425888061523,246984.25,680122.8125
261,3.5,97,4375,8055,8055 Zürich, Zürich,"«MÖBLIERT, TEMPORÄR: 3½ ZI-WOHNUNG IN ZÜRICH - KREIS 9 ALBISRIEDEN»",Zürich,420217,4778.9946548391,32.4584678868,491193.0,85446,47.36477279663086,8.505189895629883,246539.53125,680564.25
261,4.5,100,4800,8055,8055 Zürich, Zürich,«Gemütliche 4.5-Zimmer-Wohnung in zentraler Lage in Zürich»,Zürich,420217,4778.9946548391,32.4584678868,491193.0,85446,47.36477279663086,8.505189895629883,246539.53125,680564.25
261,1.5,33,3010,8055,"Friesenbergstrasse 221, 8055 Zürich", Zürich,"«Stilvolle Wiedikon 1.5ZW mit Keller und W/T, nah am Markt, über Blueg»",Zürich,420217,4778.9946548391,32.4584678868,491193.0,85446,47.36202621459961,8.50424575805664,246232.953125,680497.0625
261,1.5,33,2660,8055,"Friesenbergstrasse 221, 8055 Zürich", Zürich,"«Schöne Wiedikon 1.5ZW mit Keller und W/T, nah z. SBahn, über Bluegroun»",Zürich,420217,4778.9946548391,32.4584678868,491193.0,85446,47.36202621459961,8.50424575805664,246232.953125,680497.0625
261,1.5,40,2443,8055,"Birmensdorferstrasse 582, 8055 Zürich", Zürich,«Attika Neubauwohnung mit atemberaubender Aussicht !»,Zürich,420217,4778.9946548391,32.4584678868,491193.0,85446,47.367801666259766,8.489466667175293,246860.28125,679372.125
261,4.5,102,4540,8055,"Wiedingstrasse 87c, 8055 Zürich", Zürich,«Ihre Traumwohnung wartet im familienfreundlichen Quartier auf Sie»,Zürich,420217,4778.9946548391,32.4584678868,491193.0,85446,47.3681640625,8.517766952514648,246929.453125,681509.0625
261,2.5,57,2590,8055,"Döltschiweg 39, 8055 Zürich", Zürich,«Wo Luxus und Privatsphäre sich trifft»,Zürich,420217,4778.9946548391,32.4584678868,491193.0,85446,47.367286682128906,8.508193969726562,246822.0,680787.375
261,3.5,92,3100,8055,"Wasserschöpfi 7, 8055 Zürich", Zürich,«Ihre neue Wohlfühloase»,Zürich,420217,4778.9946548391,32.4584678868,491193.0,85446,47.365234375,8.508071899414062,246593.71875,680781.25
261,2.5,66,2375,8055,"Hanfrose 25, 8055 Zürich", Zürich,«Modernes Wohnen im schönen Quartier Heuried»,Zürich,420217,4778.9946548391,32.4584678868,491193.0,85446,47.36589050292969,8.509214401245117,246667.6875,680866.5625
261,1.0,24,1690,8055,"Zielweg 80, 8055 Zürich", Zürich,«Exklusive möblierte Apartments mit eigenem Bad und Küche an Toplage»,Zürich,420217,4778.9946548391,32.4584678868,491193.0,85446,47.35865783691406,8.498133659362793,245852.5,680040.5
261,4.5,123,5630,8045,"Eichstrasse 13, 8045 Zürich", Zürich,"«Modische Wiedikon 4.5 ZW mit Keller und W/T. Nah zum Markt, über Blueg»",Zürich,420217,4778.9946548391,32.4584678868,491193.0,85446,47.36262130737305,8.52122974395752,246316.90625,681779.125
261,1.5,30,1813,8045,8045 Zürich, Zürich,"«MÖBLIERT, TEMPORÄR: STUDIO IN ZÜRICH»",Zürich,420217,4778.9946548391,32.4584678868,491193.0,85446,47.35398864746094,8.510929107666016,245346.375,681014.125
261,2.0,41,3930,8045,"Wolframplatz 1, 8045 Zürich", Zürich,«2 Bedroom Apartment Junior»,Zürich,420217,4778.9946548391,32.4584678868,491193.0,85446,47.362281799316406,8.52219295501709,246279.96875,681852.375
261,2.0,57,4822,8045,"Wolframplatz 1, 8045 Zürich", Zürich,«2 Bedroom Apartment Senior»,Zürich,420217,4778.9946548391,32.4584678868,491193.0,85446,47.362281799316406,8.52219295501709,246279.96875,681852.375
261,4.5,145,4330,8045,"Frauentalweg 71, 8045 Zürich", Zürich,"«Ideale Wiedikon 4.5 Zim.+W/T, +Lag, 6 Min. zum Markt, über Blueground»",Zürich,420217,4778.9946548391,32.4584678868,491193.0,85446,47.35386657714844,8.509475708007812,245331.484375,680904.5625
261,2.5,53,3350,8045,8045 Zürich, Zürich,«Möblierte 2.5 Zimmer-Wohnung mit modernem Komfort und unschlagbarer Lage in Wiedikon»,Zürich,420217,4778.9946548391,32.4584678868,491193.0,85446,47.35398864746094,8.510929107666016,245346.375,681014.125
261,3.5,81,3950,8045,"Staffelstrasse 13, 8045 Zürich", Zürich,"«Helle Wiedikon, 3.5 Zim. mit Keller, W/T, 3 Min. z. Markt, über Bluegr»",Zürich,420217,4778.9946548391,32.4584678868,491193.0,85446,47.36064529418945,8.52066707611084,246096.5625,681739.5625
261,2.5,54,2615,8045,"Austrasse 48, 8045 Zürich", Zürich,«Neues Wohnquartier im Kreis 3»,Zürich,420217,4778.9946548391,32.4584678868,491193.0,85446,47.3643913269043,8.519896507263184,246512.375,681675.6875
261,1.5,39,1995,8045,"Austrasse 50, 8045 Zürich", Zürich,«Moderne Wohnung in einer ruhigen Wohnoase»,Zürich,420217,4778.9946548391,32.4584678868,491193.0,85446,47.364479064941406,8.519378662109375,246521.3125,681636.4375
261,3.5,76,3445,8045,"Austrasse 50, 8045 Zürich", Zürich,«Stadt I Natur I Leben - Neue attraktive Wohnoase»,Zürich,420217,4778.9946548391,32.4584678868,491193.0,85446,47.364479064941406,8.519378662109375,246521.3125,681636.4375
261,5.5,132,5670,8045,"Austrasse 56, 8045 Zürich", Zürich,«Viel Raum für Ihr Leben»,Zürich,420217,4778.9946548391,32.4584678868,491193.0,85446,47.363861083984375,8.519291877746582,246452.640625,681630.875
261,1.5,34,2290,8045,"Uetlibergstrasse 78, 8045 Zürich", Zürich,«Neu renovierte Wohnung»,Zürich,420217,4778.9946548391,32.4584678868,491193.0,85446,47.36252212524414,8.518315315246582,246302.9375,681559.125
261,3.5,113,3852,8045,"Staffelstrasse 3, 8045 Zürich", Zürich,«Suchen Sie eine exklusive Stadtwohnung?»,Zürich,420217,4778.9946548391,32.4584678868,491193.0,85446,47.361202239990234,8.522356986999512,246160.4375,681866.4375
261,3.5,69,5030,8037,"Uhlandstrasse 6, 8037 Zürich", Zürich,"«Hip Wipkingen 3.5 Zim.+W/T, +Lag.,2 Min. zum Markt, über Blueground»",Zürich,420217,4778.9946548391,32.4584678868,491193.0,85446,47.39446640014648,8.5289306640625,249865.1875,682311.5625
261,3.5,76,3350,8037,"Uhlandstrasse 6, 8037 Zürich", Zürich,"«Luxus Wipkingen 3.5 Zim.+W/T, +Lag.,2 Min. zum Markt, über Blueground»",Zürich,420217,4778.9946548391,32.4584678868,491193.0,85446,47.39446640014648,8.5289306640625,249865.1875,682311.5625
261,3.5,75,3659,8037,"Bucheggstrasse 21, 8037 Zürich", Zürich,«3.5 Zimmerwohnung in Wipkingen»,Zürich,420217,4778.9946548391,32.4584678868,491193.0,85446,47.396705627441406,8.528757095336914,250114.125,682295.0
261,2.5,54,3480,8037,"Rosengartenstrasse 55, 8037 Zürich", Zürich,"«Schicke Wipkingen, 2.5 Zim. mit Keller, W/T, 3 Min. z. Markt, über Blu»",Zürich,420217,4778.9946548391,32.4584678868,491193.0,85446,47.3958854675293,8.529154777526855,250023.078125,682326.3125
261,2.5,75,6900,8037,"Rosengartenstrasse 55, 8037 Zürich", Zürich,"«""Serviced 1-bedroom apartment: spectacular view & luxurious interior»",Zürich,420217,4778.9946548391,32.4584678868,491193.0,85446,47.3958854675293,8.529154777526855,250023.078125,682326.3125
261,2.5,65,5900,8037,"Rosengartenstrasse 55, 8037 Zürich", Zürich,«Serviced 1-bedroom with great view and luxurious interior design»,Zürich,420217,4778.9946548391,32.4584678868,491193.0,85446,47.3958854675293,8.529154777526855,250023.078125,682326.3125
261,2.5,70,5750,8037,"Hönggerstrasse 40, 8037 Zürich", Zürich,«Urban and chic - serviced 1-bedroom apartment»,Zürich,420217,4778.9946548391,32.4584678868,491193.0,85446,47.39241790771485,8.524658203125,249633.109375,681992.1875
261,3.5,67,2950,8037,"Rosengartenstrasse 55, 8037 Zürich", Zürich,"«Schöne Wipkingen, 3.5 Zim. mit Keller, W/T, 3 Min. z. Markt, über Blue»",Zürich,420217,4778.9946548391,32.4584678868,491193.0,85446,47.3958854675293,8.529154777526855,250023.078125,682326.3125
261,3.0,100,3950,8037,8037 Zürich, Zürich,"«URBAN, GESCHMACKVOLL UND UMGEBAUT»",Zürich,420217,4778.9946548391,32.4584678868,491193.0,85446,47.3960075378418,8.524187088012695,250031.40625,681951.125
261,3.5,60,3000,8037,"Hönggerstrasse 24, 8037 Zürich", Zürich,«3.5 Zimmerwohnung»,Zürich,420217,4778.9946548391,32.4584678868,491193.0,85446,47.391571044921875,8.534948348999023,249549.84375,682770.375
261,1.0,45,2300,8037,"Hönggerstrasse 24, 8037 Zürich", Zürich,«Studio»,Zürich,420217,4778.9946548391,32.4584678868,491193.0,85446,47.391571044921875,8.534948348999023,249549.84375,682770.375
261,1.0,29,2150,8037,"Hönggerstrasse 24, 8037 Zürich", Zürich,«Studio»,Zürich,420217,4778.9946548391,32.4584678868,491193.0,85446,47.391571044921875,8.534948348999023,249549.84375,682770.375
261,3.5,124,6550,8037,"Hönggerstrasse 24, 8037 Zürich", Zürich,«3.5 Zimmerwohnung»,Zürich,420217,4778.9946548391,32.4584678868,491193.0,85446,47.391571044921875,8.534948348999023,249549.84375,682770.375
261,3.5,112,6350,8037,"Hönggerstrasse 24, 8037 Zürich", Zürich,«3.5 Zimmerwohnung»,Zürich,420217,4778.9946548391,32.4584678868,491193.0,85446,47.391571044921875,8.534948348999023,249549.84375,682770.375
261,1.0,36,2150,8037,"Hönggerstrasse 24, 8037 Zürich", Zürich,«Studio»,Zürich,420217,4778.9946548391,32.4584678868,491193.0,85446,47.391571044921875,8.534948348999023,249549.84375,682770.375
261,1.0,35,2250,8037,"Hönggerstrasse 24, 8037 Zürich", Zürich,«Studio»,Zürich,420217,4778.9946548391,32.4584678868,491193.0,85446,47.391571044921875,8.534948348999023,249549.84375,682770.375
261,2.5,63,2850,8037,"Hönggerstrasse 24, 8037 Zürich", Zürich,«2.5 Zimmerwohnung»,Zürich,420217,4778.9946548391,32.4584678868,491193.0,85446,47.391571044921875,8.534948348999023,249549.84375,682770.375
261,2.5,70,3100,8037,"Hönggerstrasse 24, 8037 Zürich", Zürich,«2.5 Zimmerwohnung»,Zürich,420217,4778.9946548391,32.4584678868,491193.0,85446,47.391571044921875,8.534948348999023,249549.84375,682770.375
261,1.0,34,2200,8037,"Hönggerstrasse 24, 8037 Zürich", Zürich,«Studio»,Zürich,420217,4778.9946548391,32.4584678868,491193.0,85446,47.391571044921875,8.534948348999023,249549.84375,682770.375
261,2.5,59,2850,8037,"Hönggerstrasse 24, 8037 Zürich", Zürich,«2.5 Zimmerwohnung»,Zürich,420217,4778.9946548391,32.4584678868,491193.0,85446,47.391571044921875,8.534948348999023,249549.84375,682770.375
261,1.0,41,2300,8037,"Hönggerstrasse 24, 8037 Zürich", Zürich,«Studio»,Zürich,420217,4778.9946548391,32.4584678868,491193.0,85446,47.391571044921875,8.534948348999023,249549.84375,682770.375
261,2.5,68,2950,8037,"Hönggerstrasse 24, 8037 Zürich", Zürich,«2.5 Zimmerwohnung»,Zürich,420217,4778.9946548391,32.4584678868,491193.0,85446,47.391571044921875,8.534948348999023,249549.84375,682770.375
261,4.0,110,4100,8037,"Rotbuchstrasse 55, 8037 Zürich", Zürich,«Top Maisonette-Dachwohnung (110 m2) mit eigener Dachterrasse von 20 m2 Nähe Nordbrücke»,Zürich,420217,4778.9946548391,32.4584678868,491193.0,85446,47.392147064208984,8.533063888549805,249611.640625,682627.1875
261,3.5,76,3622,8037,"Rütschistrasse 16, 8037 Zürich", Zürich,«Moderne Wohnung an bester Lage zu vermieten»,Zürich,420217,4778.9946548391,32.4584678868,491193.0,85446,47.3936882019043,8.532464981079102,249782.21875,682579.5625
261,4.5,130,5650,8037,8037 Zürich, Zürich,"«Komplett renovierte, kinderfreundliche 4,5-Zimmer-Gartenwohnung»",Zürich,420217,4778.9946548391,32.4584678868,491193.0,85446,47.3960075378418,8.524187088012695,250031.40625,681951.125
261,2.5,78,2740,8006,"Rötelstr. 6, 8006 Zürich", Zürich,«Moderne 2.5 Zimmerwohnung in der nähe des Schaffhauserplatzes»,Zürich,420217,4778.9946548391,32.4584678868,491193.0,85446,47.390018463134766,8.538257598876953,249380.625,683022.625
261,4.5,90,4950,8006,"Bolleystrasse 15, 8006 Zürich", Zürich,«Wohnen und Arbeiten in einem»,Zürich,420217,4778.9946548391,32.4584678868,491193.0,85446,47.381309509277344,8.549192428588867,248423.796875,683861.875
261,3.0,93,3200,8006,"Pflugstr. 20, 8006 Zürich", Zürich,«grosszügige Wohnung in zentraler Lage am Schaffhauserplatz»,Zürich,420217,4778.9946548391,32.4584678868,491193.0,85446,47.39052200317383,8.538666725158691,249436.96875,683052.6875
261,4.5,140,9170,8006,"Engweg 8, 8006 Zürich", Zürich,«A modernist’s home: 2/3 Schlafzimmer SERVICED APARTMENT in der City»,Zürich,420217,4778.9946548391,32.4584678868,491193.0,85446,47.3852653503418,8.53763198852539,248851.578125,682982.75
261,2.0,65,2745,8006,"Kronenstr. 25, 8006 Zürich", Zürich,«Mieten ohne Kaution - wunderschöne Wohnung im Herzen von Zürich»,Zürich,420217,4778.9946548391,32.4584678868,491193.0,85446,47.38743591308594,8.537176132202148,249092.4375,682945.0
261,5.5,134,5750,8006,"Volkmarstrasse 4, 8006 Zürich", Zürich,«Einzigartige Wohnung mit Garten an zentraler Lage im Kreis 6»,Zürich,420217,4778.9946548391,32.4584678868,491193.0,85446,47.38467025756836,8.543465614318848,248791.375,683424.125
261,4.5,140,8990,8006,"Universitätstrasse 41, 8006 Zürich", Zürich,«Living at Large: Penthouse SERVICED 2/3-Bedroom Apartment»,Zürich,420217,4778.9946548391,32.4584678868,491193.0,85446,47.38043975830078,8.547943115234375,248325.828125,683768.875
261,4.0,110,5065,8006,"Gämsenstrasse 9, 8006 Zürich", Zürich,"«Ruhige 4-Zimmerwohnung, nahe Stadtzentrum»",Zürich,420217,4778.9946548391,32.4584678868,491193.0,85446,47.3885612487793,8.539690971374512,249219.921875,683133.0625
261,5.0,101,4325,8006,"Kinkelstrasse 40, 8006 Zürich", Zürich,«Wohnung mit Charm und Charakter»,Zürich,420217,4778.9946548391,32.4584678868,491193.0,85446,47.38755416870117,8.543985366821289,249112.5,683458.875
261,3.5,93,4063,8006,"Winterthurerstrasse 83, 8006 Zürich", Zürich,«Moderne Wohnung an zentraler Lage»,Zürich,420217,4778.9946548391,32.4584678868,491193.0,85446,47.39070129394531,8.5452299118042,249463.921875,683547.875
261,3.5,107,3860,8006,"Büchnerstr. 26, 8006 Zürich", Zürich,«Zentral gelegene 3.5 Zimmerwohnung in Zürich zu vermieten»,Zürich,420217,4778.9946548391,32.4584678868,491193.0,85446,47.38408660888672,8.550918579101562,248734.71875,683987.8125
261,3.0,81,2810,8006,"Röslistr. 57, 8006 Zürich", Zürich,«zentral gelegene Wohnung - Mieten ohne Kaution»,Zürich,420217,4778.9946548391,32.4584678868,491193.0,85446,47.39093399047851,8.544818878173828,249489.234375,683516.5
261,4.5,111,3980,8006,"Schaffhauserstrasse 35, 8006 Zürich", Zürich,"«urbane, grosszügige 4.5-Zimmerwohnung beim Schaffhauserplatz mit Blick in die Alpen»",Zürich,420217,4778.9946548391,32.4584678868,491193.0,85446,47.390750885009766,8.538573265075684,249462.28125,683045.3125
261,4.0,100,4635,8006,8006 Zürich, Zürich,«ELEGANT WOHNEN IM UNIVERSITÄTSVIERTEL»,Zürich,420217,4778.9946548391,32.4584678868,491193.0,85446,47.38960647583008,8.539352416992188,249335.953125,683105.9375
261,2.0,56,2610,8006,"Scheuchzerstrasse 66, 8006 Zürich", Zürich,«VIVA - Stilvolles Leben. Urbane Stille.»,Zürich,420217,4778.9946548391,32.4584678868,491193.0,85446,47.38645935058594,8.545528411865234,248992.5,683577.125
261,5.0,95,4395,8006,"Kinkelstrasse 38, 8006 Zürich", Zürich,«Sanierte Wohnung mit Altbauflair»,Zürich,420217,4778.9946548391,32.4584678868,491193.0,85446,47.38746643066406,8.543742179870605,249102.5,683440.625
261,1.5,59,2360,8006,"Beckenhofstrasse 6, 8006 Zürich", Zürich,«Top gelegene 1.5 Zimmer-Wohnung mit Balkon und Aussicht»,Zürich,420217,4778.9946548391,32.4584678868,491193.0,85446,47.38287353515625,8.541812896728516,248590.09375,683302.1875
261,2.5,67,3100,8006,"Kronenstr. 25, 8006 Zürich", Zürich,«Mieten ohne Kaution Attikawohnung»,Zürich,420217,4778.9946548391,32.4584678868,491193.0,85446,47.38743591308594,8.537176132202148,249092.4375,682945.0
261,3.5,95,2170,8102,"Zürcherstrasse 107a, 8102 Oberengstringen", Oberengstringen,«Schöne Wohnung in Oberengstringen»,Zürich,420217,4778.9946548391,32.4584678868,491193.0,85446,47.40827941894531,8.464167594909668,251334.78125,677402.5
261,2.5,75,1790,8102,"Zürcherstrasse 131, 8102 Oberengstringen", Oberengstringen,«Oberengstringen»,Zürich,420217,4778.9946548391,32.4584678868,491193.0,85446,47.409271240234375,8.461739540100098,251442.78125,677217.75
261,4.5,108,2695,8102,"Zürcherstrasse 131, 8102 Oberengstringen", Oberengstringen,«Oberengstringen»,Zürich,420217,4778.9946548391,32.4584678868,491193.0,85446,47.409271240234375,8.461739540100098,251442.78125,677217.75
261,4.0,123,4995,8005,8005 Zürich, Zürich,«Modern 4-Room Apartment in Zürich (Furnished & equipped)»,Zürich,420217,4778.9946548391,32.4584678868,491193.0,85446,47.38977813720703,8.516196250915527,249330.765625,681357.375
261,4.0,123,4600,8005,8005 Zürich, Zürich,«Modern 4-Room Apartment in Zürich»,Zürich,420217,4778.9946548391,32.4584678868,491193.0,85446,47.38977813720703,8.516196250915527,249330.765625,681357.375
261,3.5,135,7000,8005,8005 Zürich, Zürich,«TERRASSE MIT AUSSICHT ÜBER DIE STADT»,Zürich,420217,4778.9946548391,32.4584678868,491193.0,85446,47.38977813720703,8.516196250915527,249330.765625,681357.375
261,3.0,61,2290,8005,"Ackerstrasse 44, 8005 Zürich", Zürich,«3-Zimmerwohnung im Herzen von Zürich zu vermieten!»,Zürich,420217,4778.9946548391,32.4584678868,491193.0,85446,47.3829460144043,8.532779693603516,248588.375,682620.0
261,2.5,64,3490,8005,"Limmatstrasse 27, 8005 Zürich", Zürich,«Moderne 2.5-Zimmerwohnung im Herzen von Zürich»,Zürich,420217,4778.9946548391,32.4584678868,491193.0,85446,47.38096237182617,8.53622817993164,248371.453125,682883.4375
261,2.5,53,3390,8005,"Limmatstrasse 27, 8005 Zürich", Zürich,«Top moderne 2.5 Zimmerwohnung im trendigen Kreis 5!»,Zürich,420217,4778.9946548391,32.4584678868,491193.0,85446,47.38096237182617,8.53622817993164,248371.453125,682883.4375
261,3.5,91,3870,8041,8041 Zürich, Zürich,"«MÖBLIERT, TEMPORÄR: 3½ ZI-WOHNUNG IN ZÜRICH - KREIS 2 LEIMBACH»",Zürich,420217,4778.9946548391,32.4584678868,491193.0,85446,47.32240295410156,8.51379680633545,241838.015625,681278.9375
261,3.5,95,4960,8041,"Spindelstrasse 12, 8041 Zürich", Zürich,"«Sonnige Leimbach 3.5 Zim +Lag & Pr. W/K., 2 Min. zum Markt, über Blueg»",Zürich,420217,4778.9946548391,32.4584678868,491193.0,85446,47.33975982666016,8.517643928527832,243771.421875,681543.1875
261,4.5,109,3242,8041,"Maneggstrasse 87, 8041 Zürich", Zürich,«Quartierleben in der Überbauung Greencity!»,Zürich,420217,4778.9946548391,32.4584678868,491193.0,85446,47.337913513183594,8.520033836364746,243568.875,681726.625
261,2.5,87,2663,8041,"Allmendstrasse 156, 8041 Zürich", Zürich,«Moderne Wohnung an der Sihl»,Zürich,420217,4778.9946548391,32.4584678868,491193.0,85446,47.337772369384766,8.518826484680176,243551.859375,681635.5625
261,3.5,100,9150,8038,"Etzelstrasse 35, 8038 Zürich", Zürich,«WILLKOMMEN IN “WOLLYWOOD” SEESICHT 3.5-ZIMMERWOHNUNG MIT ATEMBERAUBEN»,Zürich,420217,4778.9946548391,32.4584678868,491193.0,85446,47.3465461730957,8.530694961547852,244539.578125,682518.9375
261,2.5,70,2560,8038,"Widmerstrasse 73e, 8038 Zürich", Zürich,«Wohnen in Wollishofen - Grosszügige Wohnung mit Sitzplatz!»,Zürich,420217,4778.9946548391,32.4584678868,491193.0,85446,47.33510971069336,8.532527923583984,243270.09375,682675.125
261,3.5,78,3750,8038,8038 Zürich, Zürich,"«MÖBLIERT, TEMPORÄR: 3½ ZIMMER-ATTIKAWOHNUNG IN ZÜRICH - KREIS 2 WOLLIS»",Zürich,420217,4778.9946548391,32.4584678868,491193.0,85446,47.341087341308594,8.535780906677246,243938.25,682911.75
261,2.5,70,2560,8038,"Widmerstrasse 73e, 8038 Zürich", Zürich,«Grosszügige und sanierte 2.5 ZWG in Wollishofen!»,Zürich,420217,4778.9946548391,32.4584678868,491193.0,85446,47.33510971069336,8.532527923583984,243270.09375,682675.125
261,4.5,102,4098,8038,"Widmerstrasse 73e, 8038 Zürich", Zürich,«Grosszügige Attikawohnung Mitten in Wollishofen!»,Zürich,420217,4778.9946548391,32.4584678868,491193.0,85446,47.33510971069336,8.532527923583984,243270.09375,682675.125
261,3.0,100,4185,8038,8038 Zürich, Zürich,«RUHIG UND LUXURIÖS MIT GARTEN»,Zürich,420217,4778.9946548391,32.4584678868,491193.0,85446,47.341087341308594,8.535780906677246,243938.25,682911.75
261,3.5,115,5600,8038,"Billoweg 3, 8038 Zürich", Zürich,«EXTRAVAGANT: Maisonette-Wohnung nähe Zürichsee mit Balkon»,Zürich,420217,4778.9946548391,32.4584678868,491193.0,85446,47.35210037231445,8.531397819519043,245157.765625,682563.4375
261,2.0,55,2440,8038,"Renggerstrasse 86, 8038 Zürich", Zürich,«Wohnen im schönen Wollishofen mit Seesicht! Befristet 1 Jahr»,Zürich,420217,4778.9946548391,32.4584678868,491193.0,85446,47.34347915649414,8.533731460571289,244202.03125,682753.125
261,3.5,61,1990,8038,"Ziegelstrasse 10, 8038 Zürich", Zürich,«Profitieren Sie von der zentralen Wohnlage! Nähe Strandbad Wollishofen»,Zürich,420217,4778.9946548391,32.4584678868,491193.0,85446,47.34099960327149,8.529184341430664,243921.3125,682413.3125
261,4.0,85,2681,8038,"Albisstrasse 41, 8038 Zürich", Zürich,«Wohnung im Zentrum von Wollishofen»,Zürich,420217,4778.9946548391,32.4584678868,491193.0,85446,47.34360885620117,8.530377388000488,244212.71875,682499.5
261,3.0,79,3126,8038,"Seestrasse 266/268, 8038 Zürich", Zürich,«Wohnung in Wollishofen unweit vom Zürichsee»,Zürich,420217,4778.9946548391,32.4584678868,491193.0,85446,47.350494384765625,8.53143310546875,244979.515625,682568.5625
261,2.5,70,5900,8032,"Eidmattstrasse 38, 8032 Zürich", Zürich,"«""Wohnoase im Englisch Viertel - Serviced Apartment in Jugendstil-Villa»",Zürich,420217,4778.9946548391,32.4584678868,491193.0,85446,47.36497497558594,8.560164451599121,246620.015625,684716.25
261,5.0,125,5900,8032,"Heliosstrasse 12, 8032 Zürich", Zürich,«Erstvermietung / Wohn-Oase / Totalsanierung / Zürichberg»,Zürich,420217,4778.9946548391,32.4584678868,491193.0,85446,47.36385345458984,8.559439659118652,246494.421875,684663.3125
261,5.5,185,8150,8032,8032 Zürich, Zürich,«Ideale 5.5-Zimmer-Wohnung im Dolderquartier in Zürich»,Zürich,420217,4778.9946548391,32.4584678868,491193.0,85446,47.37275695800781,8.551040649414062,247475.015625,684014.875
261,2.5,75,3580,8032,"Kasinostrasse 8, 8032 Zürich", Zürich,«Exklusiver Wohngenuss in Zürich-Hottingen»,Zürich,420217,4778.9946548391,32.4584678868,491193.0,85446,47.36873626708984,8.554423332214355,247031.75,684276.6875
261,3.0,76,4000,8032,"Klosbachstrasse 88, 8032 Zürich", Zürich,«Bijou 3 Zimmer-Wohnung am Römerhof»,Zürich,420217,4778.9946548391,32.4584678868,491193.0,85446,47.36748504638672,8.560101509094238,246898.859375,684707.5
261,2.5,75,3550,8032,"Kluseggstrasse 13A, 8032 Zürich", Zürich,"«Stilvolle Hirslanden, 2.5Zim. mit privater Garten, Keller, W/T, über»",Zürich,420217,4778.9946548391,32.4584678868,491193.0,85446,47.363990783691406,8.570082664489746,246521.421875,685467.0
261,2.5,84,2875,8032,8032 Zürich, Zürich,"«MÖBLIERT, TEMPORÄR: 2½ ZI-WOHNUNG IN ZÜRICH - KREIS 7 HOTTINGEN»",Zürich,420217,4778.9946548391,32.4584678868,491193.0,85446,47.37275695800781,8.551040649414062,247475.015625,684014.875
261,6.0,300,7050,8032,"Hofackerstrasse, 8032 Zürich", Zürich,«Wohnen über den Dächern von Zürich»,Zürich,420217,4778.9946548391,32.4584678868,491193.0,85446,47.36193084716797,8.561680793762207,246283.0,684835.6875
261,5.0,147,5460,8032,"Carmenstrasse 35, 8032 Zürich", Zürich,«Traumhafte 5 Zimmer Altbauwohnung»,Zürich,420217,4778.9946548391,32.4584678868,491193.0,85446,47.36817932128906,8.563258171081543,246979.484375,684944.8125
261,1.5,24,1850,8032,"Hölderlinstrasse 10, 8032 Zürich", Zürich,«Modernes möbliertes Business Apartment»,Zürich,420217,4778.9946548391,32.4584678868,491193.0,85446,47.366065979003906,8.5648193359375,246746.265625,685066.125
261,3.0,78,2938,8032,"Freiestrasse 21, 8032 Zürich", Zürich,«Wohnen mit Komfort»,Zürich,420217,4778.9946548391,32.4584678868,491193.0,85446,47.37208557128906,8.553751945495605,247403.453125,684220.6875
261,2.0,54,2150,8032,"Forchstrasse 131, 8032 Zürich", Zürich,«Der Hit! Sofort einziehen und 2 Wochen GRATIS wohnen! Renovierte 2-Zi. Whg. per sofort zu vermieten!»,Zürich,420217,4778.9946548391,32.4584678868,491193.0,85446,47.36075592041016,8.56263542175293,246153.65625,684909.625
261,3.0,77,3390,8032,"Zeltweg 33, 8032 Zürich", Zürich,«Hübsche 3-Zimmerwohnung Nähe Kunsthaus und Klusplatz»,Zürich,420217,4778.9946548391,32.4584678868,491193.0,85446,47.3680419921875,8.551994323730469,246952.015625,684094.3125
261,2.5,71,2980,8032,"Hirslanderstrasse 33, 8032 Zürich", Zürich,«Grosszügige 2.5-Zimmer Wohnung in einem ruhigen Wohnquartier»,Zürich,420217,4778.9946548391,32.4584678868,491193.0,85446,47.360374450683594,8.57089900970459,246120.015625,685534.4375
261,4.5,165,6140,8032,"Plattenstr. 34, 8032 Zürich", Zürich,«Attikawohnung mit eigener Rooftop»,Zürich,420217,4778.9946548391,32.4584678868,491193.0,85446,47.37311553955078,8.553730964660645,247518.09375,684217.4375
261,2.5,58,2090,8032,"Hofackerstrasse 22, 8032 Zürich", Zürich,«Lieben Sie das Aussergewöhnliche?»,Zürich,420217,4778.9946548391,32.4584678868,491193.0,85446,47.3612174987793,8.563854217529297,246206.046875,685000.9375
261,3.5,92,4240,8032,"Kasinostrasse 10, 8032 Zürich", Zürich,«Exklusiver Wohngenuss in Zürich-Hottingen»,Zürich,420217,4778.9946548391,32.4584678868,491193.0,85446,47.36858749389648,8.554622650146484,247015.40625,684292.0
261,1.0,12,1020,8052,8052 Zürich, Zürich,«WG-Zimmer direkt am Bhf. Seebach (möbliert)»,Zürich,420217,4778.9946548391,32.4584678868,491193.0,85446,47.433006286621094,8.545095443725586,254166.90625,683471.375
261,1.0,18,950,8052,8052 Zürich, Zürich,«GROSSZÜGIGE WG-ZIMMER MIT AUSSICHT»,Zürich,420217,4778.9946548391,32.4584678868,491193.0,85446,47.433006286621094,8.545095443725586,254166.90625,683471.375
261,4.5,131,4350,8052,8052 Zürich, Zürich,«Möblierte 4.5-Zimmer-Wohnung in Zürich an bester Lage»,Zürich,420217,4778.9946548391,32.4584678868,491193.0,85446,47.433006286621094,8.545095443725586,254166.90625,683471.375
261,4.5,120,4350,8052,8052 Zürich, Zürich,«MODERN MÖBILIERT UND CHARMANT MIT VIEL PLATZ»,Zürich,420217,4778.9946548391,32.4584678868,491193.0,85446,47.433006286621094,8.545095443725586,254166.90625,683471.375
261,2.0,25,2500,8052,"Badenerstrasse 250, 8052 Zürich", Zürich,«Neubau mit allem drin und dran»,Zürich,420217,4778.9946548391,32.4584678868,491193.0,85446,47.3759880065918,8.516037940979004,247797.4375,681366.5
261,2.0,25,2500,8052,"Badenerstrasse  250, 8052 Zürich", Zürich,«Neubau mit allem drin und dran»,Zürich,420217,4778.9946548391,32.4584678868,491193.0,85446,47.3759880065918,8.516037940979004,247797.4375,681366.5
261,2.5,100,3990,8053,"Im Glockenacker, 8053 Zürich", Zürich,«neuwertig - Traumsicht über Zürich - grosszügig!»,Zürich,420217,4778.9946548391,32.4584678868,491193.0,85446,47.3592529296875,8.596646308898926,246023.890625,687481.1875
261,4.5,98,2280,8053,"Carl Spittelerstr. 59, 8053 Zürich", Zürich,«**Zürich-Witikon** befristetes Wohnen bis 31.03.2025»,Zürich,420217,4778.9946548391,32.4584678868,491193.0,85446,47.35660171508789,8.592287063598633,245724.3125,687156.25
261,4.5,170,7400,8053,8053 Zürich, Zürich,«Moderne 4.5 Zimmer-Wohnung in Zürich mit Stil und Charme!»,Zürich,420217,4778.9946548391,32.4584678868,491193.0,85446,47.35861587524414,8.578998565673828,245933.5625,686149.125
261,3.5,89,3080,8053,"Wiesliacher 23, 8053 Zürich", Zürich,«Wiesliacher 21 | 23 in Zürich Stilvolles Wohnen zwischen Zentrum und Natur»,Zürich,420217,4778.9946548391,32.4584678868,491193.0,85446,47.35367202758789,8.599327087402344,245406.140625,687692.875
261,4.5,174,7260,8053,8053 Zürich, Zürich,"«MODERN, LUXURIÖS MIT ÜBERDACHTER TERRASSE»",Zürich,420217,4778.9946548391,32.4584678868,491193.0,85446,47.35861587524414,8.578998565673828,245933.5625,686149.125
261,3.5,86,2800,8053,"Im Glockenacker 56, 8053 Zürich", Zürich,«Hier wartet Ihr neues Zuhause auf Sie»,Zürich,420217,4778.9946548391,32.4584678868,491193.0,85446,47.36025619506836,8.601366996765137,246140.640625,687836.1875
261,2.5,60,2780,8053,8053 Zürich, Zürich,«EINZIGARTIG AM STADTRAND»,Zürich,420217,4778.9946548391,32.4584678868,491193.0,85446,47.35861587524414,8.578998565673828,245933.5625,686149.125
261,2.0,52,2800,8002,"Mutschellenstrasse 17, 8002 Zürich", Zürich,"«Schicke Enge 2 ZW mit W/T, nah Markt & ZRH HB, by Blueground»",Zürich,420217,4778.9946548391,32.4584678868,491193.0,85446,47.3537712097168,8.527191162109375,245339.421875,682243.0625
261,3.5,85,4650,8002,"Brandschenkestrasse 177, 8002 Zürich", Zürich,"«Fantastische Enge 3.5 Zimmer mit W/T, nah zum Markt über Blueground»",Zürich,420217,4778.9946548391,32.4584678868,491193.0,85446,47.36250686645508,8.526658058166504,246309.78125,682189.3125
261,3.0,81,2430,8002,"Alfred Escher-Str. 34, 8002 Zürich", Zürich,«Schmucke Wohnung im schönen Enge-Quartier - befristet bis 30.09.2024»,Zürich,420217,4778.9946548391,32.4584678868,491193.0,85446,47.362945556640625,8.533415794372559,246365.796875,682699.0625
261,3.5,126,6575,8002,"Seestrasse 27, 8002 Zürich", Zürich,«Live Above - Exklusive Mietwohnung über dem FIFA World Football Museum»,Zürich,420217,4778.9946548391,32.4584678868,491193.0,85446,47.36330032348633,8.53154182434082,246403.0625,682557.0
261,2.5,72,3562,8002,"Jenatschstrasse 3, 8002 Zürich", Zürich,«Sanierte Stadtwohnung nähe Enge»,Zürich,420217,4778.9946548391,32.4584678868,491193.0,85446,47.36381912231445,8.53400993347168,246463.5625,682742.625
261,3.0,60,2690,8002,"Lessingstrasse 49, 8002 Zürich", Zürich,"«Exklusives Wohnerlebnis, Natur & Stadtnah»",Zürich,420217,4778.9946548391,32.4584678868,491193.0,85446,47.355987548828125,8.524971961975098,245583.359375,682072.0
261,3.5,110,3900,8002,"Stockerstrasse 41, 8002 Zürich", Zürich,«Ihr neues Zuhause im Herzen von Zürich»,Zürich,420217,4778.9946548391,32.4584678868,491193.0,85446,47.36743927001953,8.534523963928223,246866.390625,682775.8125
261,2.5,70,3562,8002,"Jenatschstrasse 3, 8002 Zürich", Zürich,«Moderne Altbauwohnung in Seenähe»,Zürich,420217,4778.9946548391,32.4584678868,491193.0,85446,47.36381912231445,8.53400993347168,246463.5625,682742.625
261,3.5,137,6440,8002,"Genferstr. 24, 8002 Zürich", Zürich,«Ihre neue Wohlfühloase im Herzen von Zürich-Enge!»,Zürich,420217,4778.9946548391,32.4584678868,491193.0,85446,47.365352630615234,8.534263610839844,246634.140625,682759.375
261,4.5,124,4910,8002,"Alfred Escher-Strasse 27, 8002 Zürich", Zürich,«Hochwertige Altbauwohnung - Ihre neue Wohlfühloase im Enge-Quartier!»,Zürich,420217,4778.9946548391,32.4584678868,491193.0,85446,47.36368179321289,8.533648490905762,246447.953125,682715.5
261,2.5,70,5900,8057,"Schärenmoosstrasse 78, 8057 Zürich", Zürich,«Spacious apartment with spectacular view and luxururious design»,Zürich,420217,4778.9946548391,32.4584678868,491193.0,85446,47.418758392333984,8.557210922241211,252596.03125,684407.9375
261,1.5,85,2700,8057,8057 Zürich, Zürich,"«MÖBLIERT, TEMPORÄR: 1½ ZI-WOHNUNG IN ZÜRICH - KREIS 11 ALLENMOOS»",Zürich,420217,4778.9946548391,32.4584678868,491193.0,85446,47.40449523925781,8.5419921875,250993.71875,683281.9375
261,1.5,30,2550,8057,8057 Zürich, Zürich,«Mitten im Universitätsquartier von Zürich»,Zürich,420217,4778.9946548391,32.4584678868,491193.0,85446,47.40449523925781,8.5419921875,250993.71875,683281.9375
261,2.5,41,2810,8057,"Berninastrasse 58, 8057 Zürich", Zürich,«Möblierte 2.5-Zimmer Attikawohnung in Oerlikon»,Zürich,420217,4778.9946548391,32.4584678868,491193.0,85446,47.40420913696289,8.5457181930542,250966.0625,683563.5625
261,3.5,103,3700,8057,"Käferholzstrasse 42, 8057 Zürich", Zürich,«Modernes wohnen im Guggachpark!»,Zürich,420217,4778.9946548391,32.4584678868,491193.0,85446,47.401912689208984,8.531828880310059,250696.125,682518.8125
261,3.0,80,3313,8057,8057 Zürich, Zürich,"«MÖBLIERT, TEMPORÄR: 3 ZI-WOHNUNG IN ZÜRICH - KREIS 6 MILCHBUCK»",Zürich,420217,4778.9946548391,32.4584678868,491193.0,85446,47.40449523925781,8.5419921875,250993.71875,683281.9375
261,2.0,54,1922,8057,"Ringstrasse 21-23, 8057 Zürich", Zürich,«Nähe Milchbuck - zentrale und trotzdem ruhige Wohnlage»,Zürich,420217,4778.9946548391,32.4584678868,491193.0,85446,47.40192794799805,8.54389762878418,250710.515625,683429.75
261,1.5,37,2010,8057,"Bucheggstrasse 130, 8057 Zürich", Zürich,«urby - noch eine freie 1.5-Zimmer-Attikawohnung an top City-Lage!»,Zürich,420217,4778.9946548391,32.4584678868,491193.0,85446,47.398319244384766,8.538369178771973,250303.515625,683018.125
261,2.5,90,3370,8057,"Grabenwies 2, 8057 Zürich", Zürich,«Moderne 2.5-Zimmerwohnung»,Zürich,420217,4778.9946548391,32.4584678868,491193.0,85446,47.40153503417969,8.536803245544434,250659.171875,682894.875
261,4.5,117,4240,8057,"Käferholzstrasse 58, 8057 Zürich", Zürich,«Modernes wohnen im Guggachpark!»,Zürich,420217,4778.9946548391,32.4584678868,491193.0,85446,47.402618408203125,8.531781196594238,250774.46875,682514.1875
261,3.5,83,3900,8057,"Grabenwies 32, 8057 Zürich", Zürich,"«ERSTVERMIETUNG ""ALLENMOOS""»",Zürich,420217,4778.9946548391,32.4584678868,491193.0,85446,47.40287399291992,8.537378311157227,250808.984375,682936.1875
261,4.5,97,2485,8057,"Winterthurerstr. 346, 8057 Zürich", Zürich,«Geräumige Wohnung an zentraler Lage!»,Zürich,420217,4778.9946548391,32.4584678868,491193.0,85446,47.403690338134766,8.558340072631836,250922.015625,684517.0
261,1.0,34,1595,8057,"Rötelstrasse 104, 8057 Zürich", Zürich,«Am Ort der Begegnung!»,Zürich,420217,4778.9946548391,32.4584678868,491193.0,85446,47.39611053466797,8.532832145690918,250051.921875,682603.5625
261,3.5,87,3590,8057,"Grabenwies 32, 8057 Zürich", Zürich,"«ERSTVERMIETUNG ""ALLENMOOS""»",Zürich,420217,4778.9946548391,32.4584678868,491193.0,85446,47.40287399291992,8.537378311157227,250808.984375,682936.1875
261,4.5,110,4270,8057,"Grabenwies 32, 8057 Zürich", Zürich,"«ERSTVERMIETUNG ""ALLENMOOS""»",Zürich,420217,4778.9946548391,32.4584678868,491193.0,85446,47.40287399291992,8.537378311157227,250808.984375,682936.1875
261,5.5,127,4950,8057,"Käferholzstrasse 40, 8057 Zürich", Zürich,«Modernes wohnen im Guggachpark!»,Zürich,420217,4778.9946548391,32.4584678868,491193.0,85446,47.40166473388672,8.53174877166748,250668.4375,682513.1875
261,2.5,69,2820,8057,"Käferholzstrasse 56, 8057 Zürich", Zürich,«Modernes wohnen im Guggachpark»,Zürich,420217,4778.9946548391,32.4584678868,491193.0,85446,47.402469635009766,8.531588554382324,250757.890625,682499.8125
261,3.5,90,2988,8049,8049 Zürich, Zürich,"«MÖBLIERT, TEMPORÄR: 3½ ZI-WOHNUNG IN ZÜRICH - KREIS 10 HÖNGG»",Zürich,420217,4778.9946548391,32.4584678868,491193.0,85446,47.4071159362793,8.494709968566895,251235.96875,679709.25
261,2.5,87,3693,8049,"Winzerstrasse 5, 8049 Zürich", Zürich,«Herrschaftliche Villa - 2.5 Zimmerwohnung»,Zürich,420217,4778.9946548391,32.4584678868,491193.0,85446,47.40003967285156,8.49303913116455,250447.578125,679593.75
261,2.5,42,3100,8049,"Am Wasser, 8049 Zürich", Zürich,«Traumhafte Wohnoase direkt an der Limmat»,Zürich,420217,4778.9946548391,32.4584678868,491193.0,85446,47.39522171020508,8.512446403503418,249932.1875,681066.0
261,3.0,68,2070,8049,"Kappenbühlweg 5, 8049 Zürich", Zürich,«3 Zimmer-Wohnung an ruhiger Lage in Zürich Höngg»,Zürich,420217,4778.9946548391,32.4584678868,491193.0,85446,47.40325546264648,8.498315811157227,250810.46875,679987.25
261,1.5,32,2250,8049,"Am Wasser 161, 8049 Zürich", Zürich,«MÖBLIERTE WOHNUNG DIREKT AN DER LIMMAT»,Zürich,420217,4778.9946548391,32.4584678868,491193.0,85446,47.399436950683594,8.495816230773926,250383.484375,679804.3125
261,2.0,56,1725,8049,"Kappenbühlweg 5, 8049 Zürich", Zürich,«Wohnen an zentraler Lage mitten in Zürich Höngg»,Zürich,420217,4778.9946548391,32.4584678868,491193.0,85446,47.40325546264648,8.498315811157227,250810.46875,679987.25
261,1.5,22,2150,8049,"Am Wasser 161, 8049 Zürich", Zürich,«WOW AN DER LIMMAT»,Zürich,420217,4778.9946548391,32.4584678868,491193.0,85446,47.399436950683594,8.495816230773926,250383.484375,679804.3125
261,2.5,42,3150,8049,"Am Wasser, 8049 Zürich", Zürich,«Traumhafte Wohnoase direkt an der Limmat»,Zürich,420217,4778.9946548391,32.4584678868,491193.0,85446,47.39522171020508,8.512446403503418,249932.1875,681066.0
261,4.0,82,2520,8049,"Limmattalstr. 280, 8049 Zürich", Zürich,«Grosszügige Wohnung an ruhiger Lage»,Zürich,420217,4778.9946548391,32.4584678868,491193.0,85446,47.403438568115234,8.490636825561523,250823.171875,679407.375
261,2.5,63,1920,8049,"Tobeleggstrasse 8, 8049 Zürich", Zürich,«Befristet bis 30.09.2024! Originelle Dachwohnung mit schöner Aussicht»,Zürich,420217,4778.9946548391,32.4584678868,491193.0,85446,47.39912033081055,8.502053260803223,250354.609375,680275.5625
261,3.5,141,240,8001,"Rämistrasse 3, 8001 Zürich", Zürich,«Das «Denzler Haus» - Elegantes Wohnen über den Dächern von Zürich»,Zürich,420217,4778.9946548391,32.4584678868,491193.0,85446,47.36777877807617,8.5454740524292,246915.796875,683602.25
261,1.0,34,1690,8001,"Zähringerstrasse 38, 8001 Zürich", Zürich,«Apartment (möbliert) beim Central zu vermieten»,Zürich,420217,4778.9946548391,32.4584678868,491193.0,85446,47.376033782958984,8.544713020324707,247832.625,683531.875
261,3.5,114,5565,8001,"Waldmannstrasse 12A, 8001 Zürich", Zürich,«Neu renovierte Maisonette-Wohnung an bester Lage beim Bellevue mit grosser Dachterrasse»,Zürich,420217,4778.9946548391,32.4584678868,491193.0,85446,47.36893844604492,8.546807289123535,247046.03125,683701.125
261,4.5,137,875,8001,8001 Zürich, Zürich,«SERVICED APARTMENT SHORT OR LONG STAY / CITYCENTER»,Zürich,420217,4778.9946548391,32.4584678868,491193.0,85446,47.3723030090332,8.551877975463867,247425.65625,684078.875
261,6.5,200,8339,8001,8001 Zürich, Zürich,«MIT AUSSICHT ÜBER DIE SKYLINE»,Zürich,420217,4778.9946548391,32.4584678868,491193.0,85446,47.3723030090332,8.551877975463867,247425.65625,684078.875
261,2.5,90,2995,8001,"Gräbligasse, 8001 Zürich", Zürich,"«Eine wunderschöne möblierte 2.5-Zimmer Altstadtwohnung in Zürich, befristet.»",Zürich,420217,4778.9946548391,32.4584678868,491193.0,85446,47.375587463378906,8.544190406799316,247782.5,683493.0625
261,2.5,78,3760,8002,Lavaterstr. 63,Zürich,«Wunderschöne Wohnung im Enge-Quartier»,Zürich,420217,4778.9946548391,32.4584678868,491193.0,85446,47.55414581298828,7.630179405212402,267064.46875,614418.125
261,5.5,195,6900,8002,Parkring 59,Zürich,«Wohnanlage Im Parkring - Exklusive Wohnung zu vermieten»,Zürich,420217,4778.9946548391,32.4584678868,491193.0,85446,47.36689758300781,8.528817176818848,246800.03125,682345.625
261,2.5,59,2920,8044,Flobotstrasse 2,Zürich,«Erstvermietung am Zürichberg: Charmante 2.5-Zimmerwohnung im 2. OG»,Zürich,420217,4778.9946548391,32.4584678868,491193.0,85446,47.37957763671875,8.570284843444824,248254.4375,685457.25
261,3.0,75,3003,8044,Hinterbergstrasse 57,Zürich,«Erstvermietung nach Total-Sanierung: 3-Zimmerwohnung am ruhigen und sonnigen Zürichberg!»,Zürich,420217,4778.9946548391,32.4584678868,491193.0,85446,47.38201522827149,8.556857109069824,248510.53125,684439.5
261,2.5,58,1780,8050,Nansenstrasse 7,Zürich,«Befristet bis 30.11.2023 - Zentrale Wohnung in Oerlikon»,Zürich,420217,4778.9946548391,32.4584678868,491193.0,85446,47.410762786865234,8.545214653015137,251693.90625,683515.25
261,3.0,52,1600,8057,Wehntalerstrasse 223,Zürich,«Gemütliche Wohnung in Stadtnähe»,Zürich,420217,4778.9946548391,32.4584678868,491193.0,85446,47.40802001953125,8.529781341552734,251373.0625,682354.875
261,1.0,15,1240,8050,Baumackerstrasse 47,Zürich,«Wohnen in Mitten von Zürich-Oerlikon»,Zürich,420217,4778.9946548391,32.4584678868,491193.0,85446,47.40944290161133,8.542278289794922,251544.125,683295.75
261,1.5,35,1870,8048,Zwischenbächen 139,Zürich,«MÖBLIERTES WOHNEN IN ZENTRUM»,Zürich,420217,4778.9946548391,32.4584678868,491193.0,85446,47.380489349365234,8.4798002243042,248260.953125,678623.3125
261,2.5,75,3240,8004,Hallwylstrasse 84,Zürich,"«Sonnige Wiedikon 2.5 Zim., +Lag.,1 Min. zum Markt, über Blueground»",Zürich,420217,4778.9946548391,32.4584678868,491193.0,85446,47.369815826416016,8.526166915893555,247121.734375,682140.9375
261,2.0,80,2790,8005,Pfingstweidstrasse 104 E,Zürich,«Lassen Sie sich von dieser modernen Attikawohnung überzeugen!»,Zürich,420217,4778.9946548391,32.4584678868,491193.0,85446,47.39086151123047,8.509053230285645,249443.75,680816.4375
261,3.5,76,1990,8051,Altwiesenstrasse 346,Zürich,«Wohnen im idyllischen Wohnquartier!»,Zürich,420217,4778.9946548391,32.4584678868,491193.0,85446,47.399959564208984,8.590506553649902,250542.4375,686950.9375
261,1.5,25,2100,8004,Badenerstrasse 250,Zürich,«Attraktiv - möbliert - Neubau beim Lochergut»,Zürich,420217,4778.9946548391,32.4584678868,491193.0,85446,47.3759880065918,8.516037940979004,247797.4375,681366.5
261,2.5,48,3190,8004,Schöntalstrasse 27,Zürich,"«Geschmackvolles Werd 2.5 Zim.+Lager, über Blueground»",Zürich,420217,4778.9946548391,32.4584678868,491193.0,85446,47.26469039916992,8.207634925842285,235149.796875,658197.8125
261,1.5,32,2100,8049,Am Wasser 161,Zürich,«MÖBLIERTE WOHNUNG DIREKT AN DER LIMMAT»,Zürich,420217,4778.9946548391,32.4584678868,491193.0,85446,47.399436950683594,8.495816230773926,250383.484375,679804.3125
261,4.5,128,6630,8044,Freudenbergstrasse 94,Zürich,"«Elite Fluntern 4.5 Zim.+W/T, +Lag.,7 Min. zum Markt, über Blueground»",Zürich,420217,4778.9946548391,32.4584678868,491193.0,85446,47.384132385253906,8.55653190612793,248745.71875,684411.5625
261,2.5,79,3500,8002,Lavaterstr. 63,Zürich,«Grosszügige Single Wohnung an schöner Lage in Zürich Enge»,Zürich,420217,4778.9946548391,32.4584678868,491193.0,85446,47.55414581298828,7.630179405212402,267064.46875,614418.125
261,2.5,82,2875,8048,Meientalstrasse 65,Zürich,«LETZTE CHANCE! Neubauprojekt in Wohneigentumsstandard sucht DICH!»,Zürich,420217,4778.9946548391,32.4584678868,491193.0,85446,47.385841369628906,8.478418350219727,248854.578125,678511.0625
261,5.5,195,4200,8050,Affolternstrasse 154,Zürich,"«Wunderschöne, edle 5.5-Zimmer Attika-Whng in Zürich-Nord»",Zürich,420217,4778.9946548391,32.4584678868,491193.0,85446,47.4276008605957,8.473100662231445,253491.859375,678048.3125
261,1.0,45,1216,8038,Seestrasse 361,Zürich,«Grosszügige 1 Zimmerwohnung im Herzen von Zürich»,Zürich,420217,4778.9946548391,32.4584678868,491193.0,85446,47.345306396484375,8.533795356750488,244404.96875,682755.125
261,2.5,73,2378,8048,Hohlstr. 509,Zürich,"«Besichtigung: Freitag, 2. September 2022, 12.30-13.15 Uhr»",Zürich,420217,4778.9946548391,32.4584678868,491193.0,85446,47.388973236083984,8.493876457214355,249218.15625,679673.5625
261,2.5,65,2470,8048,Feldblumenstrasse 10,Zürich,"«2,5 Zimmerwohnung mit Balkon (Erstvermietung)»",Zürich,420217,4778.9946548391,32.4584678868,491193.0,85446,47.31361389160156,8.518492698669434,240866.03125,681647.375
261,3.5,68,2680,8047,Letzigraben 171,Zürich,"«3 ½ Zimmer-Wohnung, 8047 Zürich»",Zürich,420217,4778.9946548391,32.4584678868,491193.0,85446,47.37362289428711,8.495210647583008,247512.984375,679797.25
261,2.5,84,3540,8044,Fritz Fleiner-Weg 11,Zürich,«grosszügige Singel Wohnung an wunderschönen Lage»,Zürich,420217,4778.9946548391,32.4584678868,491193.0,85446,47.38129806518555,8.56221866607666,248436.578125,684845.4375
261,3.5,69,4600,8037,Uhlandstrasse 6,Zürich,"«Hip Wipkingen 3.5 Zim.+W/T, +Lag.,2 Min. zum Markt, über Blueground»",Zürich,420217,4778.9946548391,32.4584678868,491193.0,85446,47.39446640014648,8.5289306640625,249865.1875,682311.5625
261,1.5,29,1450,8057,Frohburgstrasse 303,Zürich,«1.5 bedroom apartment in quiet neighbourhood near tram station»,Zürich,420217,4778.9946548391,32.4584678868,491193.0,85446,47.40309143066406,8.557792663574219,250854.84375,684476.625
261,1.5,40,1525,8048,Hätzlergasse 28,Zürich,«Grosszügige Wohnung mit Flair an idyllischer Lage»,Zürich,420217,4778.9946548391,32.4584678868,491193.0,85446,47.39047622680664,8.468478202819824,249359.703125,677753.75
261,3.5,82,3550,8032,Carmenstrasse 16,Zürich,«Idyllisches wohnen in der Stadt Zürich»,Zürich,420217,4778.9946548391,32.4584678868,491193.0,85446,47.55631256103515,7.5631232261657715,267295.4375,609370.4375
261,4.0,120,3280,8044,Forsterstrasse,Zürich,«Möbilierte 4 Zimmerwohnung am Zürichberg»,Zürich,420217,4778.9946548391,32.4584678868,491193.0,85446,47.38007736206055,8.564464569091797,248303.59375,685016.9375
261,3.0,79,2760,8053,Im Trichtisal 7,Zürich,«Natur- und Zentrumsnah zugleich»,Zürich,420217,4778.9946548391,32.4584678868,491193.0,85446,47.355125427246094,8.603338241577148,245572.265625,687993.5
261,3.5,110,5170,8045,Staffelstrasse 13,Zürich,"«Sonnige Wiedikon 3.5 Zim.+W/T, +Lag.,2 Min. zum Markt, über Blueground»",Zürich,420217,4778.9946548391,32.4584678868,491193.0,85446,47.05445861816406,7.508957386016846,211494.703125,605343.1875
261,2.5,282,7500,8005,Giessereistrasse 12,Zürich,«WOHNTRAUM IM KREIS 5»,Zürich,420217,4778.9946548391,32.4584678868,491193.0,85446,47.39022064208984,8.518072128295898,249382.015625,681498.375
261,2.5,57,3540,8004,Rebgasse 8,Zürich,"«Modernes Langstraße 2.5 Zim. + Lager, 5 Min. zur Tram, über Blueground»",Zürich,420217,4778.9946548391,32.4584678868,491193.0,85446,47.4729118347168,7.595810413360596,258026.625,611849.25
261,3.5,72,2190,8047,Fellenbergstrasse 319,Zürich,«Gemütliche Wohnung an Toplage»,Zürich,420217,4778.9946548391,32.4584678868,491193.0,85446,47.3751335144043,8.487833023071289,247673.6875,679237.875
261,2.5,52,2840,8057,Bucheggstrasse 157,Zürich,"«Schickes Unterstraße 2.5 Zim.+Lag., 2 Min. zum Markt, über Blueground»",Zürich,420217,4778.9946548391,32.4584678868,491193.0,85446,47.39902114868164,8.540755271911621,250384.15625,683197.125
261,2.0,47,1414,8048,Grimselstrasse 19,Zürich,«Wohnen an zentraler und ruhiger Lage in Altstetten»,Zürich,420217,4778.9946548391,32.4584678868,491193.0,85446,47.385684967041016,8.489228248596191,248847.90625,679327.5
261,1.5,23,1552,8057,Viktoriastrasse 29,Zürich,«City Pop - Ein Appartement wo man sich jederzeit wie zu Hause fühlt!»,Zürich,420217,4778.9946548391,32.4584678868,491193.0,85446,47.40406799316406,8.55045223236084,250955.390625,683921.125
261,3.0,74,2422,8044,Gladbachstr. 120,Zürich,«gemütliche Wohnung in ZH-Fluntern»,Zürich,420217,4778.9946548391,32.4584678868,491193.0,85446,47.37733840942383,8.558547019958496,247992.453125,684574.5
261,4.5,126,3380,8052,Schaffhauserstrasse 456,Zürich,«Wohnung in Seebach sucht Sie!»,Zürich,420217,4778.9946548391,32.4584678868,491193.0,85446,47.41805267333984,8.546833038330078,252506.25,683626.0
261,2.5,58,2900,8004,Badenerstrasse  250,Zürich,«Moderner Wohntraum verteilt auf 2 Etagen - KREIS 4»,Zürich,420217,4778.9946548391,32.4584678868,491193.0,85446,47.3759880065918,8.516037940979004,247797.4375,681366.5
261,2.5,92,4410,8005,Hardturmstr. 5,Zürich,"«Willkommen in den ""Escherterrassen"" - Wohnen im pulsierenden Kreis 5!»",Zürich,420217,4778.9946548391,32.4584678868,491193.0,85446,47.39119338989258,8.519919395446777,249492.0,681636.3125
261,3.5,92,2010,8052,Glatttalstrasse 106,Zürich,«Wohnen an zentraler Lage»,Zürich,420217,4778.9946548391,32.4584678868,491193.0,85446,47.43009185791016,8.54483699798584,253842.671875,683456.4375
261,3.5,82,3370,8047,Langgrütstrasse 104,Zürich,«ERSTBEZUG Neubau Letzigraben in 8047 Zürich Albisrieden»,Zürich,420217,4778.9946548391,32.4584678868,491193.0,85446,47.37330627441406,8.495368003845215,247478.125,679809.5625
261,1.0,47,1170,8052,Schaffhauserstrasse 473,Zürich,«Grosszügiges Dachstudio an bester Lage befristet zu vermieten»,Zürich,420217,4778.9946548391,32.4584678868,491193.0,85446,47.420040130615234,8.548195838928223,252728.71875,683725.6875
261,4.0,70,2950,8037,Nordstrasse 135,Zürich,«Zürich Wipkingen: Charmante Wohnung in Zweifamilienhaus»,Zürich,420217,4778.9946548391,32.4584678868,491193.0,85446,47.39029312133789,8.533413887023926,249406.078125,682656.5
261,3.5,80,2100,8046,Im Isengrind 11,Zürich,"«Grosse, möbl. 3.5-Zimmerwohnung mit enormer Weitsicht»",Zürich,420217,4778.9946548391,32.4584678868,491193.0,85446,47.42313766479492,8.511916160583496,253034.984375,680983.5625
261,2.5,60,2500,8048,Herrligweg 9,Zürich,«Wohnung im Grünen und doch zentral!»,Zürich,420217,4778.9946548391,32.4584678868,491193.0,85446,47.389892578125,8.484477996826172,249311.109375,678962.625
261,3.5,111,5620,8044,Flobotstrasse 2,Zürich,«Erstvermietung am Zürichberg: Exklusive 3.5-Zimmer-Dachwohnung mit Terrasse»,Zürich,420217,4778.9946548391,32.4584678868,491193.0,85446,47.37957763671875,8.570284843444824,248254.4375,685457.25
261,2.5,65,2300,8041,Maneggplatz 16,Zürich,"«In der City Zuhause, im Grünen Daheim - Grosszügige Wohnung»",Zürich,420217,4778.9946548391,32.4584678868,491193.0,85446,47.339881896972656,8.520716667175293,243788.359375,681775.1875
261,2.5,98,2995,8044,Hinterbergstrasse 106,Zürich,«Exklusive Wohnung direkt am Zürichberg sucht neuen Mieter!»,Zürich,420217,4778.9946548391,32.4584678868,491193.0,85446,47.3851318359375,8.559892654418945,248860.21875,684663.6875
261,2.5,94,4585,8008,Mühlebachstr. 28,Zürich,«grosszügige Wohnung im Zürich Seefeld und direkter Lage am Zürich Stadelhofen»,Zürich,420217,4778.9946548391,32.4584678868,491193.0,85446,47.3648567199707,8.550126075744629,246595.875,683958.1875
261,1.0,44,1525,8038,Widmerstrasse 19,Zürich,«Ihre Wohnung mit gemütlichem Sitzplatz»,Zürich,420217,4778.9946548391,32.4584678868,491193.0,85446,47.337650299072266,8.53615665435791,243556.3125,682945.4375
261,2.5,62,2220,8038,Albisstrasse 118,Zürich,«Hochmoderner Standard trifft auf Geschmack»,Zürich,420217,4778.9946548391,32.4584678868,491193.0,85446,47.29990768432617,8.52346420288086,239347.3125,682044.3125
261,2.5,58,3100,8004,Badenerstrasse 250,Zürich,«Moderner Wohntraum verteilt auf 2 Etagen - KREIS 4»,Zürich,420217,4778.9946548391,32.4584678868,491193.0,85446,47.3759880065918,8.516037940979004,247797.4375,681366.5
261,3.5,89,2090,8051,Im Altried 1f,Zürich,«Zentral wohnen - in einem schönen Biotop mit viel Grünfläche»,Zürich,420217,4778.9946548391,32.4584678868,491193.0,85446,47.40413284301758,8.59100341796875,251006.953125,686981.625
261,2.5,60,2900,8002,Jenatschstrasse 5,Zürich,«Sanierte Stadtwohnung nähe Enge»,Zürich,420217,4778.9946548391,32.4584678868,491193.0,85446,47.364044189453125,8.53388786315918,246488.359375,682733.0625
261,3.5,72,3300,8050,Dörflistrasse  112,Zürich,"«3.5 Zr im Oerlikon, z.F z. Bahnhof, voll möbliert, flex. Sofortbuchung»",Zürich,420217,4778.9946548391,32.4584678868,491193.0,85446,47.41082382202149,8.547832489013672,251703.875,683712.75
261,3.0,68,2500,8045,Austrasse 27,Zürich,«Grosszüge 3-Zimmerwohnung in Zürich-Wiedikon»,Zürich,420217,4778.9946548391,32.4584678868,491193.0,85446,47.31586837768555,8.523653030395508,241121.890625,682034.0625
261,2.5,121,4022,8005,Pfingstweidstrasse 98,Zürich,«Living it UP! exklusives Wohnen im 22.OG»,Zürich,420217,4778.9946548391,32.4584678868,491193.0,85446,47.39064025878906,8.51033878326416,249420.578125,680913.875
261,3.0,67,2295,8038,Albisstrasse 170,Zürich,"«""Charmante 3-Zimmer-Wohnung zu vermieten""»",Zürich,420217,4778.9946548391,32.4584678868,491193.0,85446,47.333030700683594,8.529637336730957,243036.15625,682459.9375
261,3.5,76,4890,8037,Uhlandstrasse 6,Zürich,"«Luxus Wipkingen 3.5 Zim.+W/T, +Lag.,2 Min. zum Markt, über Blueground»",Zürich,420217,4778.9946548391,32.4584678868,491193.0,85446,47.39446640014648,8.5289306640625,249865.1875,682311.5625
261,4.5,81,3990,8008,Seefeldstr. 168,Zürich,«Willkommen im Herzen von Zürich»,Zürich,420217,4778.9946548391,32.4584678868,491193.0,85446,47.35554504394531,8.556349754333496,245567.546875,684443.0625
261,2.0,43,1265,8051,Grosswiesenstrasse 22,Zürich,"«Nähe Einkaufsmöglichkeiten und öffentlichen Verkehr, befristet bis 30.»",Zürich,420217,4778.9946548391,32.4584678868,491193.0,85446,47.40327453613281,8.584481239318848,250904.171875,686490.75
261,3.0,68,2900,8003,Albisriederplatz 1,Zürich,«Tolle Stadtwohnung an zentraler Lage»,Zürich,420217,4778.9946548391,32.4584678868,491193.0,85446,47.37791061401367,8.510482788085938,248005.46875,680944.125
261,4.5,101,2570,8046,Wehntalerstrasse 286,Zürich,«Zentrale Wohnlage»,Zürich,420217,4778.9946548391,32.4584678868,491193.0,85446,47.41147232055664,8.525978088378906,251752.625,682062.4375
261,1.5,32,2070,8048,Herrligweg 9,Zürich,«Wohnperle sucht Mieter»,Zürich,420217,4778.9946548391,32.4584678868,491193.0,85446,47.389892578125,8.484477996826172,249311.109375,678962.625
261,5.0,187,8900,8002,Parkring 57,Zürich,«Wohnanlage Im Parkring - Exklusive Attikawohnung zu vermieten»,Zürich,420217,4778.9946548391,32.4584678868,491193.0,85446,47.36673355102539,8.528434753417969,246781.5,682316.9375
261,3.5,84,3190,8038,Seestrasse 412,Zürich,«Vollsanierte 3.5 Zimmerwohnung direkt am See»,Zürich,420217,4778.9946548391,32.4584678868,491193.0,85446,47.34281921386719,8.535778999328613,244130.921875,682908.875
261,3.5,78,2130,8050,Langwiesstrasse,Zürich,"«3,5 Zimmer Wohnung nahe Bhf. Oerlikon mit privat Garten»",Zürich,420217,4778.9946548391,32.4584678868,491193.0,85446,47.41068649291992,8.53785514831543,251677.75,682960.0
261,2.5,63,1950,8053,Witikonerstrasse 297,Zürich,«Modernes Wohnen im Zentrum von Wittikon»,Zürich,420217,4778.9946548391,32.4584678868,491193.0,85446,47.35947799682617,8.585931777954102,246036.8125,686671.5
261,4.5,97,3850,8041,Soodstrasse 88,Zürich,"«Luxus Leimbach 4.5 Zim.+W/T, +Lag, 5 Min. zum Markt, über Blueground»",Zürich,420217,4778.9946548391,32.4584678868,491193.0,85446,47.325828552246094,8.518373489379883,242223.734375,681619.625
261,1.5,37,1947,8047,Letzigraben 120,Zürich,«1.5 Zimmerwohnung direkt am Letzigraben!»,Zürich,420217,4778.9946548391,32.4584678868,491193.0,85446,47.37661361694336,8.497147560119629,247847.4375,679939.0625
261,3.5,84,3460,8038,Seestrasse 412,Zürich,«Vollsanierte 3.5 Zimmerwohnung direkt am See»,Zürich,420217,4778.9946548391,32.4584678868,491193.0,85446,47.34281921386719,8.535778999328613,244130.921875,682908.875
261,3.5,74,4200,8004,Badenerstrasse  250,Zürich,«Neu - Luxuriös - Am Puls von Zürich»,Zürich,420217,4778.9946548391,32.4584678868,491193.0,85446,47.3759880065918,8.516037940979004,247797.4375,681366.5
261,3.5,61,1490,8038,Ziegelstrasse 20,Zürich,«Gemütliche Wohnung sucht neue Mieter!»,Zürich,420217,4778.9946548391,32.4584678868,491193.0,85446,47.340782165527344,8.52829647064209,243896.546875,682346.5625
261,1.5,231,2990,8041,Soodstrasse 90,Zürich,«Wohnen für Individualisten!»,Zürich,420217,4778.9946548391,32.4584678868,491193.0,85446,47.32560729980469,8.51819896697998,242198.875,681606.8125
261,3.5,90,3800,8057,Hofwiesenstrasse 135,Zürich,"«Erstbezug grosse 3,5 Zi Wohnung mit Gartensitzplatz»",Zürich,420217,4778.9946548391,32.4584678868,491193.0,85446,47.39908981323242,8.532793998718262,250383.265625,682596.0
261,4.0,108,2435,8053,Wiesliacher 16,Zürich,"«Schöne und ruhige Wohnlage, Nähe Naherholungsgebiete»",Zürich,420217,4778.9946548391,32.4584678868,491193.0,85446,47.354740142822266,8.599199295043945,245525.171875,687681.4375
261,3.5,110,5870,8045,Staffelstrasse 13,Zürich,"«Schöne Wiedikon 3.5 Zim.+ W/T, +Lag.,2 Min. zum Markt, über Blueground»",Zürich,420217,4778.9946548391,32.4584678868,491193.0,85446,47.05445861816406,7.508957386016846,211494.703125,605343.1875
261,2.0,43,1235,8051,Grosswiesenstrasse 2,Zürich,"«Nähe Einkaufsmöglichkeiten und öffentlichen Verkehr, befristet bis 30.»",Zürich,420217,4778.9946548391,32.4584678868,491193.0,85446,47.54019927978515,8.822372436523438,266415.46875,704177.0625
261,1.0,59,2270,8004,Kasernenstrasse 11,Zürich,«1-Zimmer-Studio - Mitten in Zürich»,Zürich,420217,4778.9946548391,32.4584678868,491193.0,85446,47.518436431884766,8.539111137390137,263658.125,682886.625
261,3.0,49,2670,8004,Zwinglistrasse 35,Zürich,«Attraktive Stadtwohnung im Kreis 4»,Zürich,420217,4778.9946548391,32.4584678868,491193.0,85446,47.378623962402344,8.527950286865234,248103.046875,682262.0
261,4.5,126,4330,8006,Rigistr. 52,Zürich,«Familien Wohnung im Herzen vom Kreis 6!»,Zürich,420217,4778.9946548391,32.4584678868,491193.0,85446,47.384803771972656,8.550923347473145,248814.421875,683987.0625
261,4.5,108,2630,8046,Schwandenholzstrasse 232,Zürich,«4.5 Zimmer-Wohnung in einem familienfreundlichen Quartier zu vermieten»,Zürich,420217,4778.9946548391,32.4584678868,491193.0,85446,47.42425537109375,8.521562576293945,253169.1875,681709.625
261,5.0,181,5320,8006,Walchestr. 25,Zürich,«Schöne Wohnung an bester Lage»,Zürich,420217,4778.9946548391,32.4584678868,491193.0,85446,47.381141662597656,8.541439056396484,248396.890625,683276.625
261,2.5,65,1640,8048,Calandastrasse 3,Zürich,«Schöne 2-Zimmerwohnung in 8048 Zürich»,Zürich,420217,4778.9946548391,32.4584678868,491193.0,85446,47.38764953613281,8.489997863769531,249067.359375,679382.6875
261,1.0,29,1590,8044,Billeterstrasse 15,Zürich,«Ihre neue Wohnung am Zürichberg»,Zürich,420217,4778.9946548391,32.4584678868,491193.0,85446,47.37915802001953,8.566191673278809,248203.296875,685148.875
261,1.5,130,1800,8049,Giacomettistrasse 17,Zürich,«Wunderschönes WG-Zimmer mit eigenem Badezimmer für Single/Studenten»,Zürich,420217,4778.9946548391,32.4584678868,491193.0,85446,47.40287399291992,8.505340576171875,250775.4375,680518.0625
261,3.5,125,6390,8008,Kreuzstrasse 64,Zürich,"«3.5 Zr im Mühlebach, z.F z Seefeld, voll möbliert, flex. Sofortbuchung»",Zürich,420217,4778.9946548391,32.4584678868,491193.0,85446,47.36457824707031,8.552704811096191,246567.921875,684153.4375
261,4.5,98,3299,8050,Eggbühlstrasse 1,Zürich,«Modernes wohnen an bester Lage in Oerlikon!»,Zürich,420217,4778.9946548391,32.4584678868,491193.0,85446,47.41617584228515,8.544777870178223,252295.609375,683473.875
261,4.0,72,2280,8045,Eibenstrasse 6,Zürich,"«Wunderschöne, sonnige, ruhige, geräumige 4.0 Zimmer Wohnung im 3 Stock»",Zürich,420217,4778.9946548391,32.4584678868,491193.0,85446,47.53367614746094,8.730437278747559,265572.09375,697268.125
261,1.5,30,1480,8038,Butzenstrasse 2,Zürich,«Wohnen im schönen Wollishofen»,Zürich,420217,4778.9946548391,32.4584678868,491193.0,85446,47.41349029541016,8.602853775024414,252060.46875,687860.625
261,4.5,111,3765,8050,Eggbühlstrasse 24,Zürich,«Wohnen im «Eggbühl»»,Zürich,420217,4778.9946548391,32.4584678868,491193.0,85446,47.41639709472656,8.543224334716797,252318.171875,683356.3125
261,1.0,20,2150,8001,Limmatquai 70,Zürich,«Bijou Appartement am Limmatquai»,Zürich,420217,4778.9946548391,32.4584678868,491193.0,85446,47.37271881103515,8.542970657348633,247462.15625,683405.5
261,1.0,22,1300,8050,Affolternstrasse 103,Zürich,"«An ruhiger Lage in schönem Wohnquartier, nahe Bahnhof Oerlikon!»",Zürich,420217,4778.9946548391,32.4584678868,491193.0,85446,47.42890167236328,8.470695495605469,253634.109375,677865.0
261,2.5,57,1370,8102,Zürcherstrasse 5,Oberengstringen,«Wohnen an zentraler Lage»,Zürich,420217,4778.9946548391,32.4584678868,491193.0,85446,47.57349395751953,8.523507118225098,269763.0,681626.75
261,3.5,85,3415,8008,Forchstr. 26,Zürich,«Ihre neue Wohnung im Seefeld!»,Zürich,420217,4778.9946548391,32.4584678868,491193.0,85446,47.28556823730469,8.612448692321777,237850.03125,688797.5
261,3.5,71,3190,8047,Langgrütstrasse 96,Zürich,«ERSTBEZUG Neubau Letzigraben in 8047 Zürich»,Zürich,420217,4778.9946548391,32.4584678868,491193.0,85446,47.37327575683594,8.49581241607666,247475.171875,679843.25
261,3.5,76,4550,8037,Scheffelstrasse 11,Zürich,"«Schike Wipkingen 3.5 Zim.+W/T, +Lag.,2 Min. zum Markt, über Blueground»",Zürich,420217,4778.9946548391,32.4584678868,491193.0,85446,47.39439010620117,8.529122352600098,249856.859375,682326.125
261,2.5,103,3120,8050,Magdalenenstrasse 9,Zürich,"«Hip Oerlikon 2.5 Zim.+Lag., 2 Min. zum Markt, über Blueground»",Zürich,420217,4778.9946548391,32.4584678868,491193.0,85446,47.40725326538086,8.551426887512207,251310.390625,683989.6875
261,2.5,71,3090,8008,Kreuzstrasse 55,Zürich,«Wohnen im Zürcher Seefeld»,Zürich,420217,4778.9946548391,32.4584678868,491193.0,85446,47.364540100097656,8.552120208740234,246562.984375,684109.3125
261,4.5,99,2900,8050,Emil Oprecht-Str. 1,Zürich,«Moderne Stadtwohnung am MFO-Park in Neu-Oerlikon»,Zürich,420217,4778.9946548391,32.4584678868,491193.0,85446,47.41197967529297,8.541033744812012,251825.03125,683197.875
261,2.0,54,1904,8052,Schaffhauserstrasse 475,Zürich,«Ansprechende Wohnung an zentraler Lage in Seebach»,Zürich,420217,4778.9946548391,32.4584678868,491193.0,85446,47.42020034790039,8.54835319519043,252746.625,683737.3125
261,4.0,97,3665,8008,Seefeldstr. 117,Zürich,«Wohnen mittem im Zürich Seefeld»,Zürich,420217,4778.9946548391,32.4584678868,491193.0,85446,47.35837936401367,8.554369926452637,245880.265625,684289.0625
261,2.5,67,3300,8005,Röntgenstrasse 48,Zürich,«Neu renoviert und an zentraler Lage»,Zürich,420217,4778.9946548391,32.4584678868,491193.0,85446,47.38470458984375,8.527143478393555,248778.171875,682191.6875
261,2.0,46,1450,8047,Dennlerstr. 24,Zürich,«Befristete Single Wohnung Nähe Letzipark - MIETEN OHNE KAUTION»,Zürich,420217,4778.9946548391,32.4584678868,491193.0,85446,47.381561279296875,8.497806549072266,248398.359375,679981.3125
261,1.5,43,1740,8050,Jungholzstrasse 20,Zürich,«Zentrale Lage - idyllisch und ruhig»,Zürich,420217,4778.9946548391,32.4584678868,491193.0,85446,47.41342544555664,8.54434871673584,251989.328125,683445.8125
261,4.0,87,2767,8002,Waffenplatzstrasse 80,Zürich,«Charmante Stadtwohnung - befristet bis 30.11.2023»,Zürich,420217,4778.9946548391,32.4584678868,491193.0,85446,47.35564804077149,8.52674674987793,245547.609375,682206.625
261,1.0,83,2800,8048,Badenerstrasse 595,Zürich,"«Zentral gelegene möbilierte Loft - Wohnung, modern, luxuriös im lebhaften Zürich-West»",Zürich,420217,4778.9946548391,32.4584678868,491193.0,85446,47.3852653503418,8.49389934539795,248805.9375,679680.8125
261,2.5,42,3000,8049,Am Wasser 161,Zürich,«Traumhafte Wohnoase direkt an der Limmat»,Zürich,420217,4778.9946548391,32.4584678868,491193.0,85446,47.399436950683594,8.495816230773926,250383.484375,679804.3125
